{
  "type": "FeatureCollection",
  "features": [
    {
      "type": "Feature",
      "geometry": {
        "type": "Point",
        "coordinates": [
          121.7394664,
          25.1323018
        ]
      },
      "properties": {
        "編號": "92",
        "時刻表編號": "1001",
        "站名": "基隆",
        "支線": "",
        "地址": "基隆市仁愛區文昌里港西街5號",
        "電話": "02-24263743",
        "緯度": 25.1323018,
        "經度": 121.7394664,
        "traWebsiteCode": "0900",
        "eng站名": "Keelung"
      }
    },
    {
      "type": "Feature",
      "geometry": {
        "type": "Point",
        "coordinates": [
          121.7418331,
          25.1230089
        ]
      },
      "properties": {
        "編號": "224",
        "時刻表編號": "1029",
        "站名": "三坑",
        "支線": "",
        "地址": "基隆市仁愛區龍安街206號",
        "電話": "02-24230289",
        "緯度": 25.1230089,
        "經度": 121.7418331,
        "traWebsiteCode": "0910",
        "eng站名": "Sankeng"
      }
    },
    {
      "type": "Feature",
      "geometry": {
        "type": "Point",
        "coordinates": [
          121.7290544,
          25.1083342
        ]
      },
      "properties": {
        "編號": "93",
        "時刻表編號": "1002",
        "站名": "八堵",
        "支線": "",
        "地址": "基隆市暖暖區八南里八堵路142號",
        "電話": "02-24560841",
        "緯度": 25.1083342,
        "經度": 121.7290544,
        "traWebsiteCode": "0920",
        "eng站名": "Badu"
      }
    },
    {
      "type": "Feature",
      "geometry": {
        "type": "Point",
        "coordinates": [
          121.713928,
          25.0934531
        ]
      },
      "properties": {
        "編號": "94",
        "時刻表編號": "1003",
        "站名": "七堵",
        "支線": "",
        "地址": "基隆市七堵區長興里東新街2號之1",
        "電話": "02-24553426",
        "緯度": 25.0934531,
        "經度": 121.713928,
        "traWebsiteCode": "0930",
        "eng站名": "Qidu"
      }
    },
    {
      "type": "Feature",
      "geometry": {
        "type": "Point",
        "coordinates": [
          121.693623,
          25.0779244
        ]
      },
      "properties": {
        "編號": "261",
        "時刻表編號": "1030",
        "站名": "百福",
        "支線": "",
        "地址": "基隆市明德三路1-1號",
        "電話": "02-24528372",
        "緯度": 25.0779244,
        "經度": 121.693623,
        "traWebsiteCode": "0940",
        "eng站名": "Baifu"
      }
    },
    {
      "type": "Feature",
      "geometry": {
        "type": "Point",
        "coordinates": [
          121.66763,
          25.077857
        ]
      },
      "properties": {
        "編號": "95",
        "時刻表編號": "1004",
        "站名": "五堵",
        "支線": "",
        "地址": "新北市汐止區長安里長安路17號",
        "電話": "02-86476200",
        "緯度": 25.077857,
        "經度": 121.66763,
        "traWebsiteCode": "0950",
        "eng站名": "Wudu"
      }
    },
    {
      "type": "Feature",
      "geometry": {
        "type": "Point",
        "coordinates": [
          121.6617346,
          25.068316
        ]
      },
      "properties": {
        "編號": "96",
        "時刻表編號": "1005",
        "站名": "汐止",
        "支線": "",
        "地址": "新北市汐止區信望里信義路1號",
        "電話": "02-26415096",
        "緯度": 25.068316,
        "經度": 121.6617346,
        "traWebsiteCode": "0960",
        "eng站名": "Xizhi"
      }
    },
    {
      "type": "Feature",
      "geometry": {
        "type": "Point",
        "coordinates": [
          121.6466505,
          25.062563
        ]
      },
      "properties": {
        "編號": "262",
        "時刻表編號": "1031",
        "站名": "汐科",
        "支線": "",
        "地址": "新北市汐止區大同路2段182號",
        "電話": "02-23815226#8730",
        "緯度": 25.062563,
        "經度": 121.6466505,
        "traWebsiteCode": "0970",
        "eng站名": "Xike"
      }
    },
    {
      "type": "Feature",
      "geometry": {
        "type": "Point",
        "coordinates": [
          121.6070578,
          25.053216
        ]
      },
      "properties": {
        "編號": "97",
        "時刻表編號": "1006",
        "站名": "南港",
        "支線": "",
        "地址": "臺北市南港區南港路1段313號",
        "電話": "02-27838645",
        "緯度": 25.053216,
        "經度": 121.6070578,
        "traWebsiteCode": "0980",
        "eng站名": "Nangang"
      }
    },
    {
      "type": "Feature",
      "geometry": {
        "type": "Point",
        "coordinates": [
          121.5779143,
          25.0491921
        ]
      },
      "properties": {
        "編號": "98",
        "時刻表編號": "1007",
        "站名": "松山",
        "支線": "",
        "地址": "臺北市信義區永吉里松山路11號",
        "電話": "02-27673819",
        "緯度": 25.0491921,
        "經度": 121.5779143,
        "traWebsiteCode": "0990",
        "eng站名": "Songshan"
      }
    },
    {
      "type": "Feature",
      "geometry": {
        "type": "Point",
        "coordinates": [
          121.517081,
          25.0479239
        ]
      },
      "properties": {
        "編號": "100",
        "時刻表編號": "1008",
        "站名": "臺北",
        "支線": "",
        "地址": "臺北市中正區黎明里北平西路3號",
        "電話": "02-23713558、02-23111024",
        "緯度": 25.0479239,
        "經度": 121.517081,
        "traWebsiteCode": "1000",
        "eng站名": "Taipei"
      }
    },
    {
      "type": "Feature",
      "geometry": {
        "type": "Point",
        "coordinates": [
          121.5004388,
          25.0333965
        ]
      },
      "properties": {
        "編號": "101",
        "時刻表編號": "1009",
        "站名": "萬華",
        "支線": "",
        "地址": "臺北市萬華區富福里康定路382號",
        "電話": "02-23020481",
        "緯度": 25.0333965,
        "經度": 121.5004388,
        "traWebsiteCode": "1010",
        "eng站名": "Wanhua"
      }
    },
    {
      "type": "Feature",
      "geometry": {
        "type": "Point",
        "coordinates": [
          121.463815,
          25.0140513
        ]
      },
      "properties": {
        "編號": "102",
        "時刻表編號": "1011",
        "站名": "板橋",
        "支線": "",
        "地址": "新北市板橋區縣民大道2段7號",
        "電話": "02-89691036",
        "緯度": 25.0140513,
        "經度": 121.463815,
        "traWebsiteCode": "1020",
        "eng站名": "Banqiao"
      }
    },
    {
      "type": "Feature",
      "geometry": {
        "type": "Point",
        "coordinates": [
          121.444737,
          25.0041922
        ]
      },
      "properties": {
        "編號": "264",
        "時刻表編號": "1032",
        "站名": "浮洲",
        "支線": "",
        "地址": "新北市板橋區僑中二街156號",
        "電話": "02-23815226#4665",
        "緯度": 25.0041922,
        "經度": 121.444737,
        "traWebsiteCode": "1030",
        "eng站名": "Fuzhou"
      }
    },
    {
      "type": "Feature",
      "geometry": {
        "type": "Point",
        "coordinates": [
          121.4246008,
          24.9914074
        ]
      },
      "properties": {
        "編號": "103",
        "時刻表編號": "1012",
        "站名": "樹林",
        "支線": "",
        "地址": "新北市樹林區樹北里鎮前街112號",
        "電話": "02-26812052",
        "緯度": 24.9914074,
        "經度": 121.4246008,
        "traWebsiteCode": "1040",
        "eng站名": "Shulin"
      }
    },
    {
      "type": "Feature",
      "geometry": {
        "type": "Point",
        "coordinates": [
          121.4088524,
          24.9804377
        ]
      },
      "properties": {
        "編號": "265",
        "時刻表編號": "1034",
        "站名": "南樹林",
        "支線": "",
        "地址": "新北市樹林區中山里中山路2段230號",
        "電話": "02-23815226#4403",
        "緯度": 24.9804377,
        "經度": 121.4088524,
        "traWebsiteCode": "1050",
        "eng站名": "South Shulin"
      }
    },
    {
      "type": "Feature",
      "geometry": {
        "type": "Point",
        "coordinates": [
          121.392614,
          24.9724808
        ]
      },
      "properties": {
        "編號": "104",
        "時刻表編號": "1013",
        "站名": "山佳",
        "支線": "",
        "地址": "新北市樹林區中山里中山路3段108號",
        "電話": "02-26808874",
        "緯度": 24.9724808,
        "經度": 121.392614,
        "traWebsiteCode": "1060",
        "eng站名": "Shanjia"
      }
    },
    {
      "type": "Feature",
      "geometry": {
        "type": "Point",
        "coordinates": [
          121.356026,
          24.95462
        ]
      },
      "properties": {
        "編號": "105",
        "時刻表編號": "1014",
        "站名": "鶯歌",
        "支線": "",
        "地址": "新北市鶯歌區東鶯里文化路68-1號",
        "電話": "02-26792004",
        "緯度": 24.95462,
        "經度": 121.356026,
        "traWebsiteCode": "1070",
        "eng站名": "Yingge"
      }
    },
    {
      "type": "Feature",
      "geometry": {
        "type": "Point",
        "coordinates": [
          121.313549,
          24.989206
        ]
      },
      "properties": {
        "編號": "106",
        "時刻表編號": "1015",
        "站名": "桃園",
        "支線": "",
        "地址": "桃園市桃園區武陵里中正路1號",
        "電話": "03-3323304",
        "緯度": 24.989206,
        "經度": 121.313549,
        "traWebsiteCode": "1080",
        "eng站名": "Taoyuan"
      }
    },
    {
      "type": "Feature",
      "geometry": {
        "type": "Point",
        "coordinates": [
          121.2633953,
          24.9744782
        ]
      },
      "properties": {
        "編號": "107",
        "時刻表編號": "1016",
        "站名": "內壢",
        "支線": "",
        "地址": "桃園市中壢區中原里中華路1段267號",
        "電話": "03-4559725",
        "緯度": 24.9744782,
        "經度": 121.2633953,
        "traWebsiteCode": "1090",
        "eng站名": "Neili"
      }
    },
    {
      "type": "Feature",
      "geometry": {
        "type": "Point",
        "coordinates": [
          121.2257365,
          24.9534545
        ]
      },
      "properties": {
        "編號": "108",
        "時刻表編號": "1017",
        "站名": "中壢",
        "支線": "",
        "地址": "桃園市中壢區石頭里中和路139號",
        "電話": "03-4223235",
        "緯度": 24.9534545,
        "經度": 121.2257365,
        "traWebsiteCode": "1100",
        "eng站名": "Zhongli"
      }
    },
    {
      "type": "Feature",
      "geometry": {
        "type": "Point",
        "coordinates": [
          121.1838019,
          24.9192082
        ]
      },
      "properties": {
        "編號": "109",
        "時刻表編號": "1018",
        "站名": "埔心",
        "支線": "",
        "地址": "桃園市楊梅區埔心里永美路208之1號",
        "電話": "03-4827100",
        "緯度": 24.9192082,
        "經度": 121.1838019,
        "traWebsiteCode": "1110",
        "eng站名": "Puxin"
      }
    },
    {
      "type": "Feature",
      "geometry": {
        "type": "Point",
        "coordinates": [
          121.1456848,
          24.9108316
        ]
      },
      "properties": {
        "編號": "110",
        "時刻表編號": "1019",
        "站名": "楊梅",
        "支線": "",
        "地址": "桃園市楊梅區楊梅里大成路256號",
        "電話": "03-4782893",
        "緯度": 24.9108316,
        "經度": 121.1456848,
        "traWebsiteCode": "1120",
        "eng站名": "Yangmei"
      }
    },
    {
      "type": "Feature",
      "geometry": {
        "type": "Point",
        "coordinates": [
          121.0815085,
          24.9343559
        ]
      },
      "properties": {
        "編號": "111",
        "時刻表編號": "1020",
        "站名": "富岡",
        "支線": "",
        "地址": "桃園市楊梅區富岡里成功路37號",
        "電話": "03-4723754",
        "緯度": 24.9343559,
        "經度": 121.0815085,
        "traWebsiteCode": "1130",
        "eng站名": "Fugang"
      }
    },
    {
      "type": "Feature",
      "geometry": {
        "type": "Point",
        "coordinates": [
          121.055736,
          24.922226
        ]
      },
      "properties": {
        "編號": "271",
        "時刻表編號": "1033",
        "站名": "北湖",
        "支線": "",
        "地址": "新竹縣湖口鄉東興村北湖路1號",
        "電話": "03-5993850",
        "緯度": 24.922226,
        "經度": 121.055736,
        "traWebsiteCode": "1150",
        "eng站名": "Beihu"
      }
    },
    {
      "type": "Feature",
      "geometry": {
        "type": "Point",
        "coordinates": [
          121.0441227,
          24.9028648
        ]
      },
      "properties": {
        "編號": "112",
        "時刻表編號": "1021",
        "站名": "湖口",
        "支線": "",
        "地址": "新竹縣湖口鄉仁勢村中山路2段121號",
        "電話": "03-5992192",
        "緯度": 24.9028648,
        "經度": 121.0441227,
        "traWebsiteCode": "1160",
        "eng站名": "Hukou"
      }
    },
    {
      "type": "Feature",
      "geometry": {
        "type": "Point",
        "coordinates": [
          120.9965875,
          24.8699365
        ]
      },
      "properties": {
        "編號": "113",
        "時刻表編號": "1022",
        "站名": "新豐",
        "支線": "",
        "地址": "新竹縣新豐鄉員山村新興路202號",
        "電話": "03-5596314",
        "緯度": 24.8699365,
        "經度": 120.9965875,
        "traWebsiteCode": "1170",
        "eng站名": "Xinfeng"
      }
    },
    {
      "type": "Feature",
      "geometry": {
        "type": "Point",
        "coordinates": [
          121.0095335,
          24.8391207
        ]
      },
      "properties": {
        "編號": "114",
        "時刻表編號": "1023",
        "站名": "竹北",
        "支線": "",
        "地址": "新竹縣竹北市福德里和平街59號",
        "電話": "03-5552024",
        "緯度": 24.8391207,
        "經度": 121.0095335,
        "traWebsiteCode": "1180",
        "eng站名": "Zhubei"
      }
    },
    {
      "type": "Feature",
      "geometry": {
        "type": "Point",
        "coordinates": [
          120.9838244,
          24.808765
        ]
      },
      "properties": {
        "編號": "237",
        "時刻表編號": "1024",
        "站名": "北新竹",
        "支線": "",
        "地址": "新竹市中華路1段291之2號",
        "電話": "無",
        "緯度": 24.808765,
        "經度": 120.9838244,
        "traWebsiteCode": "1190",
        "eng站名": "North Hsinchu"
      }
    },
    {
      "type": "Feature",
      "geometry": {
        "type": "Point",
        "coordinates": [
          120.9716955,
          24.8016432
        ]
      },
      "properties": {
        "編號": "115",
        "時刻表編號": "1025",
        "站名": "新竹",
        "支線": "",
        "地址": "新竹市榮光里中華路2段445號",
        "電話": "03-5237441",
        "緯度": 24.8016432,
        "經度": 120.9716955,
        "traWebsiteCode": "1210",
        "eng站名": "Hsinchu"
      }
    },
    {
      "type": "Feature",
      "geometry": {
        "type": "Point",
        "coordinates": [
          120.928405,
          24.787326
        ]
      },
      "properties": {
        "編號": "273",
        "時刻表編號": "1035",
        "站名": "三姓橋",
        "支線": "",
        "地址": "新竹市香山區元培街32巷30號",
        "電話": "",
        "緯度": 24.787326,
        "經度": 120.928405,
        "traWebsiteCode": "1220",
        "eng站名": "Sanxingqiao"
      }
    },
    {
      "type": "Feature",
      "geometry": {
        "type": "Point",
        "coordinates": [
          120.9138744,
          24.7631278
        ]
      },
      "properties": {
        "編號": "116",
        "時刻表編號": "1026",
        "站名": "香山",
        "支線": "",
        "地址": "新竹市朝山里中華路5段347巷2弄27號",
        "電話": "無",
        "緯度": 24.7631278,
        "經度": 120.9138744,
        "traWebsiteCode": "1230",
        "eng站名": "Xiangshan"
      }
    },
    {
      "type": "Feature",
      "geometry": {
        "type": "Point",
        "coordinates": [
          120.8718921,
          24.7228788
        ]
      },
      "properties": {
        "編號": "117",
        "時刻表編號": "1027",
        "站名": "崎頂",
        "支線": "",
        "地址": "苗栗縣竹南鎮崎頂里北戶55號",
        "電話": "無",
        "緯度": 24.7228788,
        "經度": 120.8718921,
        "traWebsiteCode": "1240",
        "eng站名": "Qiding"
      }
    },
    {
      "type": "Feature",
      "geometry": {
        "type": "Point",
        "coordinates": [
          120.8806984,
          24.6866106
        ]
      },
      "properties": {
        "編號": "118",
        "時刻表編號": "1028",
        "站名": "竹南",
        "支線": "",
        "地址": "苗栗縣竹南鎮中山路166號",
        "電話": "037-472030",
        "緯度": 24.6866106,
        "經度": 120.8806984,
        "traWebsiteCode": "1250",
        "eng站名": "Zhunan"
      }
    },
    {
      "type": "Feature",
      "geometry": {
        "type": "Point",
        "coordinates": [
          120.867194,
          24.6418626
        ]
      },
      "properties": {
        "編號": "135",
        "時刻表編號": "1302",
        "站名": "造橋",
        "支線": "山",
        "地址": "苗栗縣造橋鄉造橋村平仁路54號",
        "電話": "無",
        "緯度": 24.6418626,
        "經度": 120.867194,
        "traWebsiteCode": "3140",
        "eng站名": "Zaoqiao"
      }
    },
    {
      "type": "Feature",
      "geometry": {
        "type": "Point",
        "coordinates": [
          120.8235487,
          24.6011288
        ]
      },
      "properties": {
        "編號": "136",
        "時刻表編號": "1304",
        "站名": "豐富",
        "支線": "山",
        "地址": "苗栗縣後龍鎮新港路116號",
        "電話": "無",
        "緯度": 24.6011288,
        "經度": 120.8235487,
        "traWebsiteCode": "3150",
        "eng站名": "Fengfu"
      }
    },
    {
      "type": "Feature",
      "geometry": {
        "type": "Point",
        "coordinates": [
          120.8225292,
          24.5700216
        ]
      },
      "properties": {
        "編號": "137",
        "時刻表編號": "1305",
        "站名": "苗栗",
        "支線": "山",
        "地址": "苗栗縣苗栗市為公路1號",
        "電話": "037-260031",
        "緯度": 24.5700216,
        "經度": 120.8225292,
        "traWebsiteCode": "3160",
        "eng站名": "Miaoli"
      }
    },
    {
      "type": "Feature",
      "geometry": {
        "type": "Point",
        "coordinates": [
          120.793193,
          24.522753
        ]
      },
      "properties": {
        "編號": "138",
        "時刻表編號": "1307",
        "站名": "南勢",
        "支線": "山",
        "地址": "苗栗縣苗栗市新英里南勢39號",
        "電話": "無",
        "緯度": 24.522753,
        "經度": 120.793193,
        "traWebsiteCode": "3170",
        "eng站名": "Nanshi"
      }
    },
    {
      "type": "Feature",
      "geometry": {
        "type": "Point",
        "coordinates": [
          120.7861726,
          24.4863398
        ]
      },
      "properties": {
        "編號": "139",
        "時刻表編號": "1308",
        "站名": "銅鑼",
        "支線": "山",
        "地址": "苗栗縣銅鑼鄉銅鑼村大同路13號",
        "電話": "037-983838",
        "緯度": 24.4863398,
        "經度": 120.7861726,
        "traWebsiteCode": "3180",
        "eng站名": "Tongluo"
      }
    },
    {
      "type": "Feature",
      "geometry": {
        "type": "Point",
        "coordinates": [
          120.7739306,
          24.4206203
        ]
      },
      "properties": {
        "編號": "140",
        "時刻表編號": "1310",
        "站名": "三義",
        "支線": "山",
        "地址": "苗栗縣三義鄉雙湖村90號",
        "電話": "037-874763",
        "緯度": 24.4206203,
        "經度": 120.7739306,
        "traWebsiteCode": "3190",
        "eng站名": "Sanyi"
      }
    },
    {
      "type": "Feature",
      "geometry": {
        "type": "Point",
        "coordinates": [
          120.741816,
          24.331292
        ]
      },
      "properties": {
        "編號": "142",
        "時刻表編號": "1314",
        "站名": "泰安",
        "支線": "山",
        "地址": "臺中巿后里區安眉路37-12號",
        "電話": "無",
        "緯度": 24.331292,
        "經度": 120.741816,
        "traWebsiteCode": "3210",
        "eng站名": "Tai'an"
      }
    },
    {
      "type": "Feature",
      "geometry": {
        "type": "Point",
        "coordinates": [
          120.732893,
          24.309312
        ]
      },
      "properties": {
        "編號": "143",
        "時刻表編號": "1315",
        "站名": "后里",
        "支線": "山",
        "地址": "臺中市后里區甲后路1號",
        "電話": "04-25562038",
        "緯度": 24.309312,
        "經度": 120.732893,
        "traWebsiteCode": "3220",
        "eng站名": "Houli"
      }
    },
    {
      "type": "Feature",
      "geometry": {
        "type": "Point",
        "coordinates": [
          120.722917,
          24.254112
        ]
      },
      "properties": {
        "編號": "144",
        "時刻表編號": "1317",
        "站名": "豐原",
        "支線": "山",
        "地址": "臺中市豐原區中正路1號",
        "電話": "04-25207950",
        "緯度": 24.254112,
        "經度": 120.722917,
        "traWebsiteCode": "3230",
        "eng站名": "Fengyuan"
      }
    },
    {
      "type": "Feature",
      "geometry": {
        "type": "Point",
        "coordinates": [
          120.7053569,
          24.2132325
        ]
      },
      "properties": {
        "編號": "145",
        "時刻表編號": "1318",
        "站名": "潭子",
        "支線": "山",
        "地址": "臺中市潭子區中山路二段352號",
        "電話": "04-25319200",
        "緯度": 24.2132325,
        "經度": 120.7053569,
        "traWebsiteCode": "3250",
        "eng站名": "Tanzi"
      }
    },
    {
      "type": "Feature",
      "geometry": {
        "type": "Point",
        "coordinates": [
          120.7000847,
          24.1666822
        ]
      },
      "properties": {
        "編號": "225",
        "時刻表編號": "1323",
        "站名": "太原",
        "支線": "山",
        "地址": "臺中市東光路833號",
        "電話": "無",
        "緯度": 24.1666822,
        "經度": 120.7000847,
        "traWebsiteCode": "3280",
        "eng站名": "Taiyuan"
      }
    },
    {
      "type": "Feature",
      "geometry": {
        "type": "Point",
        "coordinates": [
          120.685008,
          24.136781
        ]
      },
      "properties": {
        "編號": "146",
        "時刻表編號": "1319",
        "站名": "臺中",
        "支線": "山",
        "地址": "臺中市建國路172號",
        "電話": "04-22227236",
        "緯度": 24.136781,
        "經度": 120.685008,
        "traWebsiteCode": "3300",
        "eng站名": "Taichung"
      }
    },
    {
      "type": "Feature",
      "geometry": {
        "type": "Point",
        "coordinates": [
          120.647897,
          24.118876
        ]
      },
      "properties": {
        "編號": "223",
        "時刻表編號": "1322",
        "站名": "大慶",
        "支線": "山",
        "地址": "臺中市建國路80號(對面)",
        "電話": "無",
        "緯度": 24.118876,
        "經度": 120.647897,
        "traWebsiteCode": "3320",
        "eng站名": "Daqing"
      }
    },
    {
      "type": "Feature",
      "geometry": {
        "type": "Point",
        "coordinates": [
          120.6224719,
          24.1086923
        ]
      },
      "properties": {
        "編號": "147",
        "時刻表編號": "1320",
        "站名": "烏日",
        "支線": "山",
        "地址": "臺中市烏日區三民街258號",
        "電話": "04-23381071",
        "緯度": 24.1086923,
        "經度": 120.6224719,
        "traWebsiteCode": "3330",
        "eng站名": "Wuri"
      }
    },
    {
      "type": "Feature",
      "geometry": {
        "type": "Point",
        "coordinates": [
          120.6162073,
          24.1100254
        ]
      },
      "properties": {
        "編號": "280",
        "時刻表編號": "1324",
        "站名": "新烏日",
        "支線": "山",
        "地址": "臺中市烏日區高鐵東一路",
        "電話": "04-23376883",
        "緯度": 24.1100254,
        "經度": 120.6162073,
        "traWebsiteCode": "3340",
        "eng站名": "Xinwuri"
      }
    },
    {
      "type": "Feature",
      "geometry": {
        "type": "Point",
        "coordinates": [
          120.6004956,
          24.1107677
        ]
      },
      "properties": {
        "編號": "148",
        "時刻表編號": "1321",
        "站名": "成功",
        "支線": "山",
        "地址": "臺中市烏日區中山路3段550號",
        "電話": "04-23371986",
        "緯度": 24.1107677,
        "經度": 120.6004956,
        "traWebsiteCode": "3350",
        "eng站名": "Chenggong"
      }
    },
    {
      "type": "Feature",
      "geometry": {
        "type": "Point",
        "coordinates": [
          120.8582416,
          24.6564147
        ]
      },
      "properties": {
        "編號": "119",
        "時刻表編號": "1102",
        "站名": "談文",
        "支線": "海",
        "地址": "苗栗縣造橋鄉談文村仁愛路29號",
        "電話": "無",
        "緯度": 24.6564147,
        "經度": 120.8582416,
        "traWebsiteCode": "2110",
        "eng站名": "Tanwen"
      }
    },
    {
      "type": "Feature",
      "geometry": {
        "type": "Point",
        "coordinates": [
          120.803778,
          24.645645
        ]
      },
      "properties": {
        "編號": "120",
        "時刻表編號": "1104",
        "站名": "大山",
        "支線": "海",
        "地址": "苗栗縣後龍鎮大山里明山路180號",
        "電話": "無",
        "緯度": 24.645645,
        "經度": 120.803778,
        "traWebsiteCode": "2120",
        "eng站名": "Dashan"
      }
    },
    {
      "type": "Feature",
      "geometry": {
        "type": "Point",
        "coordinates": [
          120.7873071,
          24.6162121
        ]
      },
      "properties": {
        "編號": "121",
        "時刻表編號": "1105",
        "站名": "後龍",
        "支線": "海",
        "地址": "苗栗縣後龍鎮南龍里車站街127號",
        "電話": "037-728616",
        "緯度": 24.6162121,
        "經度": 120.7873071,
        "traWebsiteCode": "2130",
        "eng站名": "Houlong"
      }
    },
    {
      "type": "Feature",
      "geometry": {
        "type": "Point",
        "coordinates": [
          120.758142,
          24.611683
        ]
      },
      "properties": {
        "編號": "122",
        "時刻表編號": "1106",
        "站名": "龍港",
        "支線": "海",
        "地址": "苗栗縣後龍鎮龍京里7鄰公司寮85號",
        "電話": "無",
        "緯度": 24.611683,
        "經度": 120.758142,
        "traWebsiteCode": "2140",
        "eng站名": "Longgang"
      }
    },
    {
      "type": "Feature",
      "geometry": {
        "type": "Point",
        "coordinates": [
          120.7081978,
          24.564797
        ]
      },
      "properties": {
        "編號": "123",
        "時刻表編號": "1107",
        "站名": "白沙屯",
        "支線": "海",
        "地址": "苗栗縣通霄鎮白西里131號",
        "電話": "037-793066",
        "緯度": 24.564797,
        "經度": 120.7081978,
        "traWebsiteCode": "2150",
        "eng站名": "Baishatun"
      }
    },
    {
      "type": "Feature",
      "geometry": {
        "type": "Point",
        "coordinates": [
          120.695179,
          24.54018
        ]
      },
      "properties": {
        "編號": "124",
        "時刻表編號": "1108",
        "站名": "新埔",
        "支線": "海",
        "地址": "苗栗縣通霄鎮新埔里8鄰57號",
        "電話": "無",
        "緯度": 24.54018,
        "經度": 120.695179,
        "traWebsiteCode": "2160",
        "eng站名": "Xinpu"
      }
    },
    {
      "type": "Feature",
      "geometry": {
        "type": "Point",
        "coordinates": [
          120.6784246,
          24.4914035
        ]
      },
      "properties": {
        "編號": "125",
        "時刻表編號": "1109",
        "站名": "通霄",
        "支線": "海",
        "地址": "苗栗縣通霄鎮通西里中山路109號",
        "電話": "037-758300",
        "緯度": 24.4914035,
        "經度": 120.6784246,
        "traWebsiteCode": "2170",
        "eng站名": "Tongxiao"
      }
    },
    {
      "type": "Feature",
      "geometry": {
        "type": "Point",
        "coordinates": [
          120.651494,
          24.443426
        ]
      },
      "properties": {
        "編號": "126",
        "時刻表編號": "1110",
        "站名": "苑裡",
        "支線": "海",
        "地址": "苗栗縣苑裡鎮中山路165號",
        "電話": "037-851013",
        "緯度": 24.443426,
        "經度": 120.651494,
        "traWebsiteCode": "2180",
        "eng站名": "Yuanli"
      }
    },
    {
      "type": "Feature",
      "geometry": {
        "type": "Point",
        "coordinates": [
          120.6541189,
          24.3780659
        ]
      },
      "properties": {
        "編號": "127",
        "時刻表編號": "1111",
        "站名": "日南",
        "支線": "海",
        "地址": "臺中市大甲區孟春里中山路2段140巷8號",
        "電話": "無",
        "緯度": 24.3780659,
        "經度": 120.6541189,
        "traWebsiteCode": "2190",
        "eng站名": "Rinan"
      }
    },
    {
      "type": "Feature",
      "geometry": {
        "type": "Point",
        "coordinates": [
          120.6270172,
          24.34443
        ]
      },
      "properties": {
        "編號": "128",
        "時刻表編號": "1112",
        "站名": "大甲",
        "支線": "海",
        "地址": "臺中市大甲區中山路1段828號",
        "電話": "04-26872022",
        "緯度": 24.34443,
        "經度": 120.6270172,
        "traWebsiteCode": "2200",
        "eng站名": "Dajia"
      }
    },
    {
      "type": "Feature",
      "geometry": {
        "type": "Point",
        "coordinates": [
          120.602303,
          24.304388
        ]
      },
      "properties": {
        "編號": "129",
        "時刻表編號": "1113",
        "站名": "臺中港",
        "支線": "海",
        "地址": "臺中市清水區甲南路2號",
        "電話": "04-26225374",
        "緯度": 24.304388,
        "經度": 120.602303,
        "traWebsiteCode": "2210",
        "eng站名": "Taichung Port"
      }
    },
    {
      "type": "Feature",
      "geometry": {
        "type": "Point",
        "coordinates": [
          120.569178,
          24.2636239
        ]
      },
      "properties": {
        "編號": "130",
        "時刻表編號": "1114",
        "站名": "清水",
        "支線": "海",
        "地址": "臺中市清水區南社里中正街115號",
        "電話": "04-26222021",
        "緯度": 24.2636239,
        "經度": 120.569178,
        "traWebsiteCode": "2220",
        "eng站名": "Qingshui"
      }
    },
    {
      "type": "Feature",
      "geometry": {
        "type": "Point",
        "coordinates": [
          120.5576269,
          24.2370445
        ]
      },
      "properties": {
        "編號": "131",
        "時刻表編號": "1115",
        "站名": "沙鹿",
        "支線": "海",
        "地址": "臺中市沙鹿區中正街94號",
        "電話": "04-26625057",
        "緯度": 24.2370445,
        "經度": 120.5576269,
        "traWebsiteCode": "2230",
        "eng站名": "Shalu"
      }
    },
    {
      "type": "Feature",
      "geometry": {
        "type": "Point",
        "coordinates": [
          120.5443041,
          24.1972272
        ]
      },
      "properties": {
        "編號": "132",
        "時刻表編號": "1116",
        "站名": "龍井",
        "支線": "海",
        "地址": "臺中市龍井區龍新路1號",
        "電話": "04-26355578",
        "緯度": 24.1972272,
        "經度": 120.5443041,
        "traWebsiteCode": "2240",
        "eng站名": "Longjing"
      }
    },
    {
      "type": "Feature",
      "geometry": {
        "type": "Point",
        "coordinates": [
          120.5425336,
          24.1550185
        ]
      },
      "properties": {
        "編號": "133",
        "時刻表編號": "1117",
        "站名": "大肚",
        "支線": "海",
        "地址": "臺中市大肚區平和街121號",
        "電話": "04-26992523",
        "緯度": 24.1550185,
        "經度": 120.5425336,
        "traWebsiteCode": "2250",
        "eng站名": "Dadu"
      }
    },
    {
      "type": "Feature",
      "geometry": {
        "type": "Point",
        "coordinates": [
          120.5695894,
          24.1208194
        ]
      },
      "properties": {
        "編號": "134",
        "時刻表編號": "1118",
        "站名": "追分",
        "支線": "海",
        "地址": "臺中市大肚區王田里追分街13號",
        "電話": "04-26933106",
        "緯度": 24.1208194,
        "經度": 120.5695894,
        "traWebsiteCode": "2260",
        "eng站名": "Zhuifen"
      }
    },
    {
      "type": "Feature",
      "geometry": {
        "type": "Point",
        "coordinates": [
          120.5385394,
          24.0816657
        ]
      },
      "properties": {
        "編號": "149",
        "時刻表編號": "1120",
        "站名": "彰化",
        "支線": "",
        "地址": "彰化縣彰化市三民路1號",
        "電話": "04-7278263",
        "緯度": 24.0816657,
        "經度": 120.5385394,
        "traWebsiteCode": "3360",
        "eng站名": "Changhua"
      }
    },
    {
      "type": "Feature",
      "geometry": {
        "type": "Point",
        "coordinates": [
          120.5373997,
          24.0249965
        ]
      },
      "properties": {
        "編號": "150",
        "時刻表編號": "1202",
        "站名": "花壇",
        "支線": "",
        "地址": "彰化縣花壇鄉中正路370號",
        "電話": "無",
        "緯度": 24.0249965,
        "經度": 120.5373997,
        "traWebsiteCode": "3370",
        "eng站名": "Huatan"
      }
    },
    {
      "type": "Feature",
      "geometry": {
        "type": "Point",
        "coordinates": [
          120.5606453,
          23.9900528
        ]
      },
      "properties": {
        "編號": "227",
        "時刻表編號": "1240",
        "站名": "大村",
        "支線": "",
        "地址": "彰化縣大村鄉過溝村福進路100號",
        "電話": "無",
        "緯度": 23.9900528,
        "經度": 120.5606453,
        "traWebsiteCode": "3380",
        "eng站名": "Dacun"
      }
    },
    {
      "type": "Feature",
      "geometry": {
        "type": "Point",
        "coordinates": [
          120.5699606,
          23.9593465
        ]
      },
      "properties": {
        "編號": "151",
        "時刻表編號": "1203",
        "站名": "員林",
        "支線": "",
        "地址": "彰化縣員林鎮民權街55號",
        "電話": "04-8320544",
        "緯度": 23.9593465,
        "經度": 120.5699606,
        "traWebsiteCode": "3390",
        "eng站名": "Yuanlin"
      }
    },
    {
      "type": "Feature",
      "geometry": {
        "type": "Point",
        "coordinates": [
          120.5716724,
          23.9281475
        ]
      },
      "properties": {
        "編號": "152",
        "時刻表編號": "1204",
        "站名": "永靖",
        "支線": "",
        "地址": "彰化縣永靖鄉崙子村永崙路25號",
        "電話": "無",
        "緯度": 23.9281475,
        "經度": 120.5716724,
        "traWebsiteCode": "3400",
        "eng站名": "Yongjing"
      }
    },
    {
      "type": "Feature",
      "geometry": {
        "type": "Point",
        "coordinates": [
          120.5808001,
          23.8957104
        ]
      },
      "properties": {
        "編號": "153",
        "時刻表編號": "1205",
        "站名": "社頭",
        "支線": "",
        "地址": "彰化縣社頭鄉廣興村社站路10號",
        "電話": "04-8711646",
        "緯度": 23.8957104,
        "經度": 120.5808001,
        "traWebsiteCode": "3410",
        "eng站名": "Shetou"
      }
    },
    {
      "type": "Feature",
      "geometry": {
        "type": "Point",
        "coordinates": [
          120.583564,
          23.857685
        ]
      },
      "properties": {
        "編號": "154",
        "時刻表編號": "1206",
        "站名": "田中",
        "支線": "",
        "地址": "彰化縣田中鎮中州路1段1號",
        "電話": "04-8742142",
        "緯度": 23.857685,
        "經度": 120.583564,
        "traWebsiteCode": "3420",
        "eng站名": "Tianzhong"
      }
    },
    {
      "type": "Feature",
      "geometry": {
        "type": "Point",
        "coordinates": [
          120.618115,
          23.8131501
        ]
      },
      "properties": {
        "編號": "155",
        "時刻表編號": "1207",
        "站名": "二水",
        "支線": "",
        "地址": "彰化縣二水鄉光文路1號",
        "電話": "04-8792027",
        "緯度": 23.8131501,
        "經度": 120.618115,
        "traWebsiteCode": "3430",
        "eng站名": "Ershui"
      }
    },
    {
      "type": "Feature",
      "geometry": {
        "type": "Point",
        "coordinates": [
          120.614987,
          23.7596808
        ]
      },
      "properties": {
        "編號": "156",
        "時刻表編號": "1208",
        "站名": "林內",
        "支線": "",
        "地址": "雲林縣林內鄉中山路42號",
        "電話": "05-5892040",
        "緯度": 23.7596808,
        "經度": 120.614987,
        "traWebsiteCode": "3450",
        "eng站名": "Linnei"
      }
    },
    {
      "type": "Feature",
      "geometry": {
        "type": "Point",
        "coordinates": [
          120.577977,
          23.725819
        ]
      },
      "properties": {
        "編號": "157",
        "時刻表編號": "1209",
        "站名": "石榴",
        "支線": "",
        "地址": "雲林縣斗六市榴北里文明路26號",
        "電話": "無",
        "緯度": 23.725819,
        "經度": 120.577977,
        "traWebsiteCode": "3460",
        "eng站名": "Shiliu"
      }
    },
    {
      "type": "Feature",
      "geometry": {
        "type": "Point",
        "coordinates": [
          120.54327,
          23.7124606
        ]
      },
      "properties": {
        "編號": "158",
        "時刻表編號": "1210",
        "站名": "斗六",
        "支線": "",
        "地址": "雲林縣斗六市信義里民生路187號",
        "電話": "05-5332900",
        "緯度": 23.7124606,
        "經度": 120.54327,
        "traWebsiteCode": "3470",
        "eng站名": "Douliu"
      }
    },
    {
      "type": "Feature",
      "geometry": {
        "type": "Point",
        "coordinates": [
          120.4808407,
          23.6729716
        ]
      },
      "properties": {
        "編號": "159",
        "時刻表編號": "1211",
        "站名": "斗南",
        "支線": "",
        "地址": "雲林縣斗南鎮南昌里中山路2號",
        "電話": "05-5972039",
        "緯度": 23.6729716,
        "經度": 120.4808407,
        "traWebsiteCode": "3480",
        "eng站名": "Dounan"
      }
    },
    {
      "type": "Feature",
      "geometry": {
        "type": "Point",
        "coordinates": [
          120.4732056,
          23.6386539
        ]
      },
      "properties": {
        "編號": "160",
        "時刻表編號": "1212",
        "站名": "石龜",
        "支線": "",
        "地址": "雲林縣斗南鎮石溪里",
        "電話": "無",
        "緯度": 23.6386539,
        "經度": 120.4732056,
        "traWebsiteCode": "3490",
        "eng站名": "Shigui"
      }
    },
    {
      "type": "Feature",
      "geometry": {
        "type": "Point",
        "coordinates": [
          120.4558391,
          23.6010764
        ]
      },
      "properties": {
        "編號": "161",
        "時刻表編號": "1213",
        "站名": "大林",
        "支線": "",
        "地址": "嘉義縣大林鎮吉林里中山路2號",
        "電話": "05-2654804",
        "緯度": 23.6010764,
        "經度": 120.4558391,
        "traWebsiteCode": "4050",
        "eng站名": "Dalin"
      }
    },
    {
      "type": "Feature",
      "geometry": {
        "type": "Point",
        "coordinates": [
          120.4316513,
          23.5550395
        ]
      },
      "properties": {
        "編號": "162",
        "時刻表編號": "1214",
        "站名": "民雄",
        "支線": "",
        "地址": "嘉義縣民雄鄉東榮村和平路2號",
        "電話": "05-2264272",
        "緯度": 23.5550395,
        "經度": 120.4316513,
        "traWebsiteCode": "4060",
        "eng站名": "Minxiong"
      }
    },
    {
      "type": "Feature",
      "geometry": {
        "type": "Point",
        "coordinates": [
          120.451295,
          23.500685
        ]
      },
      "properties": {
        "編號": "228",
        "時刻表編號": "1241",
        "站名": "嘉北",
        "支線": "",
        "地址": "嘉義市後湖里保健街110號",
        "電話": "05-2334584",
        "緯度": 23.500685,
        "經度": 120.451295,
        "traWebsiteCode": "4070",
        "eng站名": "Jiabei"
      }
    },
    {
      "type": "Feature",
      "geometry": {
        "type": "Point",
        "coordinates": [
          120.4422923,
          23.4793059
        ]
      },
      "properties": {
        "編號": "163",
        "時刻表編號": "1215",
        "站名": "嘉義",
        "支線": "",
        "地址": "嘉義市中山路528號(含前、後站)",
        "電話": "05-2228904",
        "緯度": 23.4793059,
        "經度": 120.4422923,
        "traWebsiteCode": "4080",
        "eng站名": "Chiayi"
      }
    },
    {
      "type": "Feature",
      "geometry": {
        "type": "Point",
        "coordinates": [
          120.399706,
          23.433976
        ]
      },
      "properties": {
        "編號": "164",
        "時刻表編號": "1217",
        "站名": "水上",
        "支線": "",
        "地址": "嘉義縣水上鄉粗溪村68號",
        "電話": "無",
        "緯度": 23.433976,
        "經度": 120.399706,
        "traWebsiteCode": "4090",
        "eng站名": "Shuishang"
      }
    },
    {
      "type": "Feature",
      "geometry": {
        "type": "Point",
        "coordinates": [
          120.3853425,
          23.406972
        ]
      },
      "properties": {
        "編號": "165",
        "時刻表編號": "1218",
        "站名": "南靖",
        "支線": "",
        "地址": "嘉義縣水上鄉三鎮村26號",
        "電話": "無",
        "緯度": 23.406972,
        "經度": 120.3853425,
        "traWebsiteCode": "4100",
        "eng站名": "Nanjing"
      }
    },
    {
      "type": "Feature",
      "geometry": {
        "type": "Point",
        "coordinates": [
          120.360603,
          23.366247
        ]
      },
      "properties": {
        "編號": "166",
        "時刻表編號": "1219",
        "站名": "後壁",
        "支線": "",
        "地址": "臺南市後壁區後壁里77號",
        "電話": "",
        "緯度": 23.366247,
        "經度": 120.360603,
        "traWebsiteCode": "4110",
        "eng站名": "Houbi"
      }
    },
    {
      "type": "Feature",
      "geometry": {
        "type": "Point",
        "coordinates": [
          120.323055,
          23.3067319
        ]
      },
      "properties": {
        "編號": "167",
        "時刻表編號": "1220",
        "站名": "新營",
        "支線": "",
        "地址": "臺南市新營區中營里中山路1號",
        "電話": "06-6322104",
        "緯度": 23.3067319,
        "經度": 120.323055,
        "traWebsiteCode": "4120",
        "eng站名": "Xinying"
      }
    },
    {
      "type": "Feature",
      "geometry": {
        "type": "Point",
        "coordinates": [
          120.322519,
          23.27762
        ]
      },
      "properties": {
        "編號": "168",
        "時刻表編號": "1221",
        "站名": "柳營",
        "支線": "",
        "地址": "臺南市柳營區東昇里建國路1號",
        "電話": "",
        "緯度": 23.27762,
        "經度": 120.322519,
        "traWebsiteCode": "4130",
        "eng站名": "Liuying"
      }
    },
    {
      "type": "Feature",
      "geometry": {
        "type": "Point",
        "coordinates": [
          120.320973,
          23.242592
        ]
      },
      "properties": {
        "編號": "169",
        "時刻表編號": "1222",
        "站名": "林鳳營",
        "支線": "",
        "地址": "臺南市六甲區中社里林鳳營16號",
        "電話": "06-6986086",
        "緯度": 23.242592,
        "經度": 120.320973,
        "traWebsiteCode": "4140",
        "eng站名": "Linfengying"
      }
    },
    {
      "type": "Feature",
      "geometry": {
        "type": "Point",
        "coordinates": [
          120.318898,
          23.1926666
        ]
      },
      "properties": {
        "編號": "170",
        "時刻表編號": "1223",
        "站名": "隆田",
        "支線": "",
        "地址": "臺南市官田區隆田里中山路1段1號",
        "電話": "06-5791664",
        "緯度": 23.1926666,
        "經度": 120.318898,
        "traWebsiteCode": "4150",
        "eng站名": "Longtian"
      }
    },
    {
      "type": "Feature",
      "geometry": {
        "type": "Point",
        "coordinates": [
          120.321185,
          23.172291
        ]
      },
      "properties": {
        "編號": "171",
        "時刻表編號": "1224",
        "站名": "拔林",
        "支線": "",
        "地址": "臺南市官田區拔林里83之1號",
        "電話": "無",
        "緯度": 23.172291,
        "經度": 120.321185,
        "traWebsiteCode": "4160",
        "eng站名": "Balin"
      }
    },
    {
      "type": "Feature",
      "geometry": {
        "type": "Point",
        "coordinates": [
          120.3065509,
          23.1333235
        ]
      },
      "properties": {
        "編號": "172",
        "時刻表編號": "1225",
        "站名": "善化",
        "支線": "",
        "地址": "臺南市善化區中山路1號",
        "電話": "06-5837301",
        "緯度": 23.1333235,
        "經度": 120.3065509,
        "traWebsiteCode": "4170",
        "eng站名": "Shanhua"
      }
    },
    {
      "type": "Feature",
      "geometry": {
        "type": "Point",
        "coordinates": [
          120.307701,
          23.100596
        ]
      },
      "properties": {
        "編號": "282",
        "時刻表編號": "1244",
        "站名": "南科",
        "支線": "",
        "地址": "臺南市新市區大營里大營村287-300號",
        "電話": "06-5896356",
        "緯度": 23.100596,
        "經度": 120.307701,
        "traWebsiteCode": "4180",
        "eng站名": "Nanke"
      }
    },
    {
      "type": "Feature",
      "geometry": {
        "type": "Point",
        "coordinates": [
          120.2944406,
          23.0643755
        ]
      },
      "properties": {
        "編號": "173",
        "時刻表編號": "1226",
        "站名": "新市",
        "支線": "",
        "地址": "臺南市新市區新和里中華路1號",
        "電話": "06-5996911",
        "緯度": 23.0643755,
        "經度": 120.2944406,
        "traWebsiteCode": "4190",
        "eng站名": "Xinshi"
      }
    },
    {
      "type": "Feature",
      "geometry": {
        "type": "Point",
        "coordinates": [
          120.2535236,
          23.0383377
        ]
      },
      "properties": {
        "編號": "174",
        "時刻表編號": "1227",
        "站名": "永康",
        "支線": "",
        "地址": "臺南市永康區埔園里中山路459號",
        "電話": "06-2323305",
        "緯度": 23.0383377,
        "經度": 120.2535236,
        "traWebsiteCode": "4200",
        "eng站名": "Yongkang"
      }
    },
    {
      "type": "Feature",
      "geometry": {
        "type": "Point",
        "coordinates": [
          120.2244201,
          23.0193991
        ]
      },
      "properties": {
        "編號": "226",
        "時刻表編號": "1239",
        "站名": "大橋",
        "支線": "",
        "地址": "臺南市永康區中華路835號",
        "電話": "06-3021755",
        "緯度": 23.0193991,
        "經度": 120.2244201,
        "traWebsiteCode": "4210",
        "eng站名": "Daqiao"
      }
    },
    {
      "type": "Feature",
      "geometry": {
        "type": "Point",
        "coordinates": [
          120.2129662,
          22.9971443
        ]
      },
      "properties": {
        "編號": "175",
        "時刻表編號": "1228",
        "站名": "臺南",
        "支線": "",
        "地址": "臺南市東區北門路2段4號",
        "電話": "06-2261314",
        "緯度": 22.9971443,
        "經度": 120.2129662,
        "traWebsiteCode": "4220",
        "eng站名": "Tainan"
      }
    },
    {
      "type": "Feature",
      "geometry": {
        "type": "Point",
        "coordinates": [
          120.2315935,
          22.9329397
        ]
      },
      "properties": {
        "編號": "176",
        "時刻表編號": "1229",
        "站名": "保安",
        "支線": "",
        "地址": "臺南市仁德區保安里文賢路1段529巷10號",
        "電話": "06-2665988",
        "緯度": 22.9329397,
        "經度": 120.2315935,
        "traWebsiteCode": "4250",
        "eng站名": "Bao'an"
      }
    },
    {
      "type": "Feature",
      "geometry": {
        "type": "Point",
        "coordinates": [
          120.2432267,
          22.9215274
        ]
      },
      "properties": {
        "編號": "281",
        "時刻表編號": "1243",
        "站名": "仁德",
        "支線": "",
        "地址": "臺南市仁德區保安里永德路10號",
        "電話": "06-2669383",
        "緯度": 22.9215274,
        "經度": 120.2432267,
        "traWebsiteCode": "4260",
        "eng站名": "Rende"
      }
    },
    {
      "type": "Feature",
      "geometry": {
        "type": "Point",
        "coordinates": [
          120.249932,
          22.909584
        ]
      },
      "properties": {
        "編號": "177",
        "時刻表編號": "1230",
        "站名": "中洲",
        "支線": "",
        "地址": "臺南市仁德區中洲路298之1號",
        "電話": "06-2667191",
        "緯度": 22.909584,
        "經度": 120.249932,
        "traWebsiteCode": "4270",
        "eng站名": "Zhongzhou"
      }
    },
    {
      "type": "Feature",
      "geometry": {
        "type": "Point",
        "coordinates": [
          120.2533872,
          22.8802741
        ]
      },
      "properties": {
        "編號": "178",
        "時刻表編號": "1231",
        "站名": "大湖",
        "支線": "",
        "地址": "高雄市路竹區甲南里天佑路24號",
        "電話": "07-6932127",
        "緯度": 22.8802741,
        "經度": 120.2533872,
        "traWebsiteCode": "4290",
        "eng站名": "Dahu"
      }
    },
    {
      "type": "Feature",
      "geometry": {
        "type": "Point",
        "coordinates": [
          120.265653,
          22.8547588
        ]
      },
      "properties": {
        "編號": "179",
        "時刻表編號": "1232",
        "站名": "路竹",
        "支線": "",
        "地址": "高雄市路竹區竹南里中正路288號",
        "電話": "07-6072723",
        "緯度": 22.8547588,
        "經度": 120.265653,
        "traWebsiteCode": "4300",
        "eng站名": "Luzhu"
      }
    },
    {
      "type": "Feature",
      "geometry": {
        "type": "Point",
        "coordinates": [
          120.3000191,
          22.7922708
        ]
      },
      "properties": {
        "編號": "180",
        "時刻表編號": "1233",
        "站名": "岡山",
        "支線": "",
        "地址": "高雄市岡山區岡燕路111號",
        "電話": "07-6212074",
        "緯度": 22.7922708,
        "經度": 120.3000191,
        "traWebsiteCode": "4310",
        "eng站名": "Gangshan"
      }
    },
    {
      "type": "Feature",
      "geometry": {
        "type": "Point",
        "coordinates": [
          120.3105702,
          22.7599698
        ]
      },
      "properties": {
        "編號": "181",
        "時刻表編號": "1234",
        "站名": "橋頭",
        "支線": "",
        "地址": "高雄市橋頭區橋頭里站前街14號",
        "電話": "07-6115424",
        "緯度": 22.7599698,
        "經度": 120.3105702,
        "traWebsiteCode": "4320",
        "eng站名": "Qiaotou"
      }
    },
    {
      "type": "Feature",
      "geometry": {
        "type": "Point",
        "coordinates": [
          120.3243707,
          22.7270354
        ]
      },
      "properties": {
        "編號": "183",
        "時刻表編號": "1235",
        "站名": "楠梓",
        "支線": "",
        "地址": "高雄市楠梓區建楠路229號",
        "電話": "07-3510175",
        "緯度": 22.7270354,
        "經度": 120.3243707,
        "traWebsiteCode": "4330",
        "eng站名": "Nanzi"
      }
    },
    {
      "type": "Feature",
      "geometry": {
        "type": "Point",
        "coordinates": [
          120.3067878,
          22.6875442
        ]
      },
      "properties": {
        "編號": "288",
        "時刻表編號": "1242",
        "站名": "新左營",
        "支線": "",
        "地址": "高雄市左營區尾北里站前北路1號",
        "電話": "07-5887825",
        "緯度": 22.6875442,
        "經度": 120.3067878,
        "traWebsiteCode": "4340",
        "eng站名": "Xinzuoying"
      }
    },
    {
      "type": "Feature",
      "geometry": {
        "type": "Point",
        "coordinates": [
          120.2947934,
          22.675204
        ]
      },
      "properties": {
        "編號": "184",
        "時刻表編號": "1236",
        "站名": "左營",
        "支線": "",
        "地址": "高雄市左營區勝利路1號",
        "電話": "無",
        "緯度": 22.675204,
        "經度": 120.2947934,
        "traWebsiteCode": "4350",
        "eng站名": "Zuoying"
      }
    },
    {
      "type": "Feature",
      "geometry": {
        "type": "Point",
        "coordinates": [
          120.3021106,
          22.6396198
        ]
      },
      "properties": {
        "編號": "185",
        "時刻表編號": "1238",
        "站名": "高雄",
        "支線": "",
        "地址": "高雄市三民區建國二路318號",
        "電話": "07-2352376",
        "緯度": 22.6396198,
        "經度": 120.3021106,
        "traWebsiteCode": "4400",
        "eng站名": "Kaohsiung"
      }
    },
    {
      "type": "Feature",
      "geometry": {
        "type": "Point",
        "coordinates": [
          120.357683,
          22.631284
        ]
      },
      "properties": {
        "編號": "186",
        "時刻表編號": "1402",
        "站名": "鳳山",
        "支線": "",
        "地址": "高雄市鳳山區曹公路70號",
        "電話": "07-7460423",
        "緯度": 22.631284,
        "經度": 120.357683,
        "traWebsiteCode": "4440",
        "eng站名": "Fengshan"
      }
    },
    {
      "type": "Feature",
      "geometry": {
        "type": "Point",
        "coordinates": [
          120.3911254,
          22.6400667
        ]
      },
      "properties": {
        "編號": "187",
        "時刻表編號": "1403",
        "站名": "後庄",
        "支線": "",
        "地址": "高雄市大寮區民慶街9號",
        "電話": "07-7020149",
        "緯度": 22.6400667,
        "經度": 120.3911254,
        "traWebsiteCode": "4450",
        "eng站名": "Houzhuang"
      }
    },
    {
      "type": "Feature",
      "geometry": {
        "type": "Point",
        "coordinates": [
          120.4213296,
          22.6595711
        ]
      },
      "properties": {
        "編號": "188",
        "時刻表編號": "1404",
        "站名": "九曲堂",
        "支線": "",
        "地址": "高雄市大樹區久堂里鐵路巷15號",
        "電話": "07-6512020",
        "緯度": 22.6595711,
        "經度": 120.4213296,
        "traWebsiteCode": "4460",
        "eng站名": "Jiuqutang"
      }
    },
    {
      "type": "Feature",
      "geometry": {
        "type": "Point",
        "coordinates": [
          120.464996,
          22.665987
        ]
      },
      "properties": {
        "編號": "189",
        "時刻表編號": "1405",
        "站名": "六塊厝",
        "支線": "",
        "地址": "屏東縣屏東市長安里光復路392號",
        "電話": "無",
        "緯度": 22.665987,
        "經度": 120.464996,
        "traWebsiteCode": "4470",
        "eng站名": "Liukuaicuo"
      }
    },
    {
      "type": "Feature",
      "geometry": {
        "type": "Point",
        "coordinates": [
          120.486203,
          22.669306
        ]
      },
      "properties": {
        "編號": "190",
        "時刻表編號": "1406",
        "站名": "屏東",
        "支線": "",
        "地址": "屏東縣屏東市光復路43號",
        "電話": "08-7655240",
        "緯度": 22.669306,
        "經度": 120.486203,
        "traWebsiteCode": "5000",
        "eng站名": "Pingtung"
      }
    },
    {
      "type": "Feature",
      "geometry": {
        "type": "Point",
        "coordinates": [
          121.740329,
          25.1022821
        ]
      },
      "properties": {
        "編號": "91",
        "時刻表編號": "1802",
        "站名": "暖暖",
        "支線": "",
        "地址": "基隆市暖暖街51號",
        "電話": "無",
        "緯度": 25.1022821,
        "經度": 121.740329,
        "traWebsiteCode": "7390",
        "eng站名": "Nuannuan"
      }
    },
    {
      "type": "Feature",
      "geometry": {
        "type": "Point",
        "coordinates": [
          121.7618869,
          25.1027508
        ]
      },
      "properties": {
        "編號": "90",
        "時刻表編號": "1803",
        "站名": "四腳亭",
        "支線": "",
        "地址": "新北市瑞芳區吉慶里中央路65號",
        "電話": "02-24579346",
        "緯度": 25.1027508,
        "經度": 121.7618869,
        "traWebsiteCode": "7380",
        "eng站名": "Sijiaoting"
      }
    },
    {
      "type": "Feature",
      "geometry": {
        "type": "Point",
        "coordinates": [
          121.8061486,
          25.1089277
        ]
      },
      "properties": {
        "編號": "89",
        "時刻表編號": "1804",
        "站名": "瑞芳",
        "支線": "",
        "地址": "新北市瑞芳區龍潭里明燈路3段82號",
        "電話": "02-24972033",
        "緯度": 25.1089277,
        "經度": 121.8061486,
        "traWebsiteCode": "7360",
        "eng站名": "Ruifang"
      }
    },
    {
      "type": "Feature",
      "geometry": {
        "type": "Point",
        "coordinates": [
          121.8274239,
          25.0870094
        ]
      },
      "properties": {
        "編號": "88",
        "時刻表編號": "1805",
        "站名": "猴硐",
        "支線": "",
        "地址": "新北市瑞芳區光復里柴寮路70號",
        "電話": "02-24977747",
        "緯度": 25.0870094,
        "經度": 121.8274239,
        "traWebsiteCode": "7350",
        "eng站名": "Houtong"
      }
    },
    {
      "type": "Feature",
      "geometry": {
        "type": "Point",
        "coordinates": [
          121.8225588,
          25.0655443
        ]
      },
      "properties": {
        "編號": "87",
        "時刻表編號": "1806",
        "站名": "三貂嶺",
        "支線": "",
        "地址": "新北市瑞芳區碩仁里魚寮路1號",
        "電話": "02-24977896",
        "緯度": 25.0655443,
        "經度": 121.8225588,
        "traWebsiteCode": "7330",
        "eng站名": "Sandiaoling"
      }
    },
    {
      "type": "Feature",
      "geometry": {
        "type": "Point",
        "coordinates": [
          121.851999,
          25.058768
        ]
      },
      "properties": {
        "編號": "86",
        "時刻表編號": "1807",
        "站名": "牡丹",
        "支線": "",
        "地址": "新北市雙溪區牡丹路159號",
        "電話": "無",
        "緯度": 25.058768,
        "經度": 121.851999,
        "traWebsiteCode": "7320",
        "eng站名": "Mudan"
      }
    },
    {
      "type": "Feature",
      "geometry": {
        "type": "Point",
        "coordinates": [
          121.8658396,
          25.0386122
        ]
      },
      "properties": {
        "編號": "85",
        "時刻表編號": "1808",
        "站名": "雙溪",
        "支線": "",
        "地址": "新北市雙溪區新基里朝陽街1號",
        "電話": "02-24932980",
        "緯度": 25.0386122,
        "經度": 121.8658396,
        "traWebsiteCode": "7310",
        "eng站名": "Shuangxi"
      }
    },
    {
      "type": "Feature",
      "geometry": {
        "type": "Point",
        "coordinates": [
          121.9093995,
          25.0219664
        ]
      },
      "properties": {
        "編號": "84",
        "時刻表編號": "1809",
        "站名": "貢寮",
        "支線": "",
        "地址": "新北市貢寮區貢寮里朝陽街33號",
        "電話": "02-24941500",
        "緯度": 25.0219664,
        "經度": 121.9093995,
        "traWebsiteCode": "7300",
        "eng站名": "Gongliao"
      }
    },
    {
      "type": "Feature",
      "geometry": {
        "type": "Point",
        "coordinates": [
          121.9448946,
          25.0163397
        ]
      },
      "properties": {
        "編號": "83",
        "時刻表編號": "1810",
        "站名": "福隆",
        "支線": "",
        "地址": "新北市貢寮區福隆里福隆街2號",
        "電話": "02-24991800",
        "緯度": 25.0163397,
        "經度": 121.9448946,
        "traWebsiteCode": "7290",
        "eng站名": "Fulong"
      }
    },
    {
      "type": "Feature",
      "geometry": {
        "type": "Point",
        "coordinates": [
          121.9451914,
          24.9783344
        ]
      },
      "properties": {
        "編號": "82",
        "時刻表編號": "1811",
        "站名": "石城",
        "支線": "",
        "地址": "宜蘭縣頭城鎮石城里濱海路7段230號",
        "電話": "無",
        "緯度": 24.9783344,
        "經度": 121.9451914,
        "traWebsiteCode": "7280",
        "eng站名": "Shicheng"
      }
    },
    {
      "type": "Feature",
      "geometry": {
        "type": "Point",
        "coordinates": [
          121.9224961,
          24.9667986
        ]
      },
      "properties": {
        "編號": "81",
        "時刻表編號": "1812",
        "站名": "大里",
        "支線": "",
        "地址": "宜蘭縣頭城鎮大里里濱海路6段326號",
        "電話": "03-9781171",
        "緯度": 24.9667986,
        "經度": 121.9224961,
        "traWebsiteCode": "7270",
        "eng站名": "Dali"
      }
    },
    {
      "type": "Feature",
      "geometry": {
        "type": "Point",
        "coordinates": [
          121.8898732,
          24.9384235
        ]
      },
      "properties": {
        "編號": "80",
        "時刻表編號": "1813",
        "站名": "大溪",
        "支線": "",
        "地址": "宜蘭縣頭城鎮大溪里濱海路5段63號",
        "電話": "無",
        "緯度": 24.9384235,
        "經度": 121.8898732,
        "traWebsiteCode": "7260",
        "eng站名": "Daxi"
      }
    },
    {
      "type": "Feature",
      "geometry": {
        "type": "Point",
        "coordinates": [
          121.8688782,
          24.9048183
        ]
      },
      "properties": {
        "編號": "79",
        "時刻表編號": "1814",
        "站名": "龜山",
        "支線": "",
        "地址": "宜蘭縣頭城鎮更新里濱海路3段261號",
        "電話": "03-9770351",
        "緯度": 24.9048183,
        "經度": 121.8688782,
        "traWebsiteCode": "7250",
        "eng站名": "Guishan"
      }
    },
    {
      "type": "Feature",
      "geometry": {
        "type": "Point",
        "coordinates": [
          121.8457576,
          24.8837032
        ]
      },
      "properties": {
        "編號": "78",
        "時刻表編號": "1815",
        "站名": "外澳",
        "支線": "",
        "地址": "宜蘭縣頭城鎮外澳里濱海路2段217號",
        "電話": "無",
        "緯度": 24.8837032,
        "經度": 121.8457576,
        "traWebsiteCode": "7240",
        "eng站名": "Wai'ao"
      }
    },
    {
      "type": "Feature",
      "geometry": {
        "type": "Point",
        "coordinates": [
          121.8225558,
          24.8589758
        ]
      },
      "properties": {
        "編號": "77",
        "時刻表編號": "1816",
        "站名": "頭城",
        "支線": "",
        "地址": "宜蘭縣頭城鎮城北里纘祥路59號",
        "電話": "03-9771429",
        "緯度": 24.8589758,
        "經度": 121.8225558,
        "traWebsiteCode": "7230",
        "eng站名": "Toucheng"
      }
    },
    {
      "type": "Feature",
      "geometry": {
        "type": "Point",
        "coordinates": [
          121.8092075,
          24.843998
        ]
      },
      "properties": {
        "編號": "76",
        "時刻表編號": "1817",
        "站名": "頂埔",
        "支線": "",
        "地址": "宜蘭縣頭城鎮下埔里下埔路4-8號",
        "電話": "無",
        "緯度": 24.843998,
        "經度": 121.8092075,
        "traWebsiteCode": "7220",
        "eng站名": "Dingpu"
      }
    },
    {
      "type": "Feature",
      "geometry": {
        "type": "Point",
        "coordinates": [
          121.7753536,
          24.8270345
        ]
      },
      "properties": {
        "編號": "75",
        "時刻表編號": "1818",
        "站名": "礁溪",
        "支線": "",
        "地址": "宜蘭縣礁溪鄉德陽村溫泉路1號",
        "電話": "03-9886940",
        "緯度": 24.8270345,
        "經度": 121.7753536,
        "traWebsiteCode": "7210",
        "eng站名": "Jiaoxi"
      }
    },
    {
      "type": "Feature",
      "geometry": {
        "type": "Point",
        "coordinates": [
          121.7627275,
          24.7868018
        ]
      },
      "properties": {
        "編號": "74",
        "時刻表編號": "1819",
        "站名": "四城",
        "支線": "",
        "地址": "宜蘭縣礁溪鄉吳沙村站前路24號",
        "電話": "03-9282449",
        "緯度": 24.7868018,
        "經度": 121.7627275,
        "traWebsiteCode": "7200",
        "eng站名": "Sicheng"
      }
    },
    {
      "type": "Feature",
      "geometry": {
        "type": "Point",
        "coordinates": [
          121.7582529,
          24.7545124
        ]
      },
      "properties": {
        "編號": "73",
        "時刻表編號": "1820",
        "站名": "宜蘭",
        "支線": "",
        "地址": "宜蘭縣宜蘭市和睦里光復路1號",
        "電話": "03-9323801",
        "緯度": 24.7545124,
        "經度": 121.7582529,
        "traWebsiteCode": "7190",
        "eng站名": "Yilan"
      }
    },
    {
      "type": "Feature",
      "geometry": {
        "type": "Point",
        "coordinates": [
          121.774131,
          24.7052671
        ]
      },
      "properties": {
        "編號": "72",
        "時刻表編號": "1821",
        "站名": "二結",
        "支線": "",
        "地址": "宜蘭縣五結鄉三興村復興中路37號",
        "電話": "03-9650304",
        "緯度": 24.7052671,
        "經度": 121.774131,
        "traWebsiteCode": "7180",
        "eng站名": "Erjie"
      }
    },
    {
      "type": "Feature",
      "geometry": {
        "type": "Point",
        "coordinates": [
          121.775256,
          24.694166
        ]
      },
      "properties": {
        "編號": "71",
        "時刻表編號": "1822",
        "站名": "中里",
        "支線": "",
        "地址": "宜蘭縣五結鄉台興路10號",
        "電話": "無",
        "緯度": 24.694166,
        "經度": 121.775256,
        "traWebsiteCode": "7170",
        "eng站名": "Zhongli"
      }
    },
    {
      "type": "Feature",
      "geometry": {
        "type": "Point",
        "coordinates": [
          121.7746293,
          24.6779285
        ]
      },
      "properties": {
        "編號": "70",
        "時刻表編號": "1823",
        "站名": "羅東",
        "支線": "",
        "地址": "宜蘭縣羅東鎮大新里公正路2號",
        "電話": "03-9542117",
        "緯度": 24.6779285,
        "經度": 121.7746293,
        "traWebsiteCode": "7160",
        "eng站名": "Luodong"
      }
    },
    {
      "type": "Feature",
      "geometry": {
        "type": "Point",
        "coordinates": [
          121.7921071,
          24.6362965
        ]
      },
      "properties": {
        "編號": "69",
        "時刻表編號": "1824",
        "站名": "冬山",
        "支線": "",
        "地址": "宜蘭縣冬山鄉冬山村中正路1號",
        "電話": "03-9594221",
        "緯度": 24.6362965,
        "經度": 121.7921071,
        "traWebsiteCode": "7150",
        "eng站名": "Dongshan"
      }
    },
    {
      "type": "Feature",
      "geometry": {
        "type": "Point",
        "coordinates": [
          121.8229,
          24.6153953
        ]
      },
      "properties": {
        "編號": "68",
        "時刻表編號": "1825",
        "站名": "新馬",
        "支線": "",
        "地址": "宜蘭縣蘇澳鎮中山路2段322號",
        "電話": "無",
        "緯度": 24.6153953,
        "經度": 121.8229,
        "traWebsiteCode": "7140",
        "eng站名": "Xinma"
      }
    },
    {
      "type": "Feature",
      "geometry": {
        "type": "Point",
        "coordinates": [
          121.82703,
          24.6090239
        ]
      },
      "properties": {
        "編號": "67",
        "時刻表編號": "1826",
        "站名": "蘇澳新",
        "支線": "",
        "地址": "宜蘭縣蘇澳鎮中山路2段238號之1",
        "電話": "03-9961004",
        "緯度": 24.6090239,
        "經度": 121.82703,
        "traWebsiteCode": "7130",
        "eng站名": "Su'aoxin"
      }
    },
    {
      "type": "Feature",
      "geometry": {
        "type": "Point",
        "coordinates": [
          121.8514401,
          24.5951807
        ]
      },
      "properties": {
        "編號": "66",
        "時刻表編號": "1827",
        "站名": "蘇澳",
        "支線": "",
        "地址": "宜蘭縣蘇澳鎮蘇南里太平路1號",
        "電話": "03-9962028",
        "緯度": 24.5951807,
        "經度": 121.8514401,
        "traWebsiteCode": "7120",
        "eng站名": "Su'ao"
      }
    },
    {
      "type": "Feature",
      "geometry": {
        "type": "Point",
        "coordinates": [
          121.8445641,
          24.5684172
        ]
      },
      "properties": {
        "編號": "64",
        "時刻表編號": "1703",
        "站名": "永樂",
        "支線": "",
        "地址": "宜蘭縣蘇澳鎮永樂里圳頭路60號",
        "電話": "03-9961889",
        "緯度": 24.5684172,
        "經度": 121.8445641,
        "traWebsiteCode": "7110",
        "eng站名": "Yongle"
      }
    },
    {
      "type": "Feature",
      "geometry": {
        "type": "Point",
        "coordinates": [
          121.830705,
          24.518281
        ]
      },
      "properties": {
        "編號": "63",
        "時刻表編號": "1704",
        "站名": "東澳",
        "支線": "",
        "地址": "宜蘭縣南澳鄉東岳村1號",
        "電話": "03-9986053",
        "緯度": 24.518281,
        "經度": 121.830705,
        "traWebsiteCode": "7100",
        "eng站名": "Dong'ao"
      }
    },
    {
      "type": "Feature",
      "geometry": {
        "type": "Point",
        "coordinates": [
          121.8009262,
          24.4633961
        ]
      },
      "properties": {
        "編號": "62",
        "時刻表編號": "1705",
        "站名": "南澳",
        "支線": "",
        "地址": "宜蘭縣蘇澳鎮南強里大通路22號",
        "電話": "03-9981971",
        "緯度": 24.4633961,
        "經度": 121.8009262,
        "traWebsiteCode": "7090",
        "eng站名": "Nan'ao"
      }
    },
    {
      "type": "Feature",
      "geometry": {
        "type": "Point",
        "coordinates": [
          121.7760368,
          24.4486736
        ]
      },
      "properties": {
        "編號": "60",
        "時刻表編號": "1706",
        "站名": "武塔",
        "支線": "",
        "地址": "宜蘭縣南澳鄉武塔村新溪路18號",
        "電話": "無",
        "緯度": 24.4486736,
        "經度": 121.7760368,
        "traWebsiteCode": "7080",
        "eng站名": "Wuta"
      }
    },
    {
      "type": "Feature",
      "geometry": {
        "type": "Point",
        "coordinates": [
          121.7683548,
          24.3354282
        ]
      },
      "properties": {
        "編號": "58",
        "時刻表編號": "1708",
        "站名": "漢本",
        "支線": "",
        "地址": "宜蘭縣南澳鄉澳花村蘇花路1段56號",
        "電話": "03-9985238",
        "緯度": 24.3354282,
        "經度": 121.7683548,
        "traWebsiteCode": "7070",
        "eng站名": "Hanben"
      }
    },
    {
      "type": "Feature",
      "geometry": {
        "type": "Point",
        "coordinates": [
          121.7533456,
          24.2982959
        ]
      },
      "properties": {
        "編號": "57",
        "時刻表編號": "1709",
        "站名": "和平",
        "支線": "",
        "地址": "花蓮縣秀林鄉和平村276號",
        "電話": "03-8681009",
        "緯度": 24.2982959,
        "經度": 121.7533456,
        "traWebsiteCode": "7060",
        "eng站名": "Heping"
      }
    },
    {
      "type": "Feature",
      "geometry": {
        "type": "Point",
        "coordinates": [
          121.7294026,
          24.2481897
        ]
      },
      "properties": {
        "編號": "56",
        "時刻表編號": "1710",
        "站名": "和仁",
        "支線": "",
        "地址": "花蓮縣秀林鄉和仁路71號",
        "電話": "03-8681221",
        "緯度": 24.2481897,
        "經度": 121.7294026,
        "traWebsiteCode": "7050",
        "eng站名": "Heren"
      }
    },
    {
      "type": "Feature",
      "geometry": {
        "type": "Point",
        "coordinates": [
          121.6543068,
          24.1693952
        ]
      },
      "properties": {
        "編號": "55",
        "時刻表編號": "1711",
        "站名": "崇德",
        "支線": "",
        "地址": "花蓮縣秀林鄉海濱路96號",
        "電話": "03-8621365",
        "緯度": 24.1693952,
        "經度": 121.6543068,
        "traWebsiteCode": "7040",
        "eng站名": "Chongde"
      }
    },
    {
      "type": "Feature",
      "geometry": {
        "type": "Point",
        "coordinates": [
          121.640866,
          24.1275238
        ]
      },
      "properties": {
        "編號": "54",
        "時刻表編號": "1712",
        "站名": "新城",
        "支線": "",
        "地址": "花蓮縣新城鄉新城村新興1路73號",
        "電話": "03-8611237",
        "緯度": 24.1275238,
        "經度": 121.640866,
        "traWebsiteCode": "7030",
        "eng站名": "Xincheng"
      }
    },
    {
      "type": "Feature",
      "geometry": {
        "type": "Point",
        "coordinates": [
          121.610786,
          24.090317
        ]
      },
      "properties": {
        "編號": "53",
        "時刻表編號": "1713",
        "站名": "景美",
        "支線": "",
        "地址": "花蓮縣秀林鄉加灣178-1號",
        "電話": "無",
        "緯度": 24.090317,
        "經度": 121.610786,
        "traWebsiteCode": "7020",
        "eng站名": "Jingmei"
      }
    },
    {
      "type": "Feature",
      "geometry": {
        "type": "Point",
        "coordinates": [
          121.6028403,
          24.0259577
        ]
      },
      "properties": {
        "編號": "52",
        "時刻表編號": "1714",
        "站名": "北埔",
        "支線": "",
        "地址": "花蓮縣新城鄉自強街113號",
        "電話": "03-8263809",
        "緯度": 24.0259577,
        "經度": 121.6028403,
        "traWebsiteCode": "7010",
        "eng站名": "Beipu"
      }
    },
    {
      "type": "Feature",
      "geometry": {
        "type": "Point",
        "coordinates": [
          121.6009927,
          23.9928678
        ]
      },
      "properties": {
        "編號": "51",
        "時刻表編號": "1715",
        "站名": "花蓮",
        "支線": "",
        "地址": "花蓮縣花蓮市國聯一路100號",
        "電話": "03-8355941",
        "緯度": 23.9928678,
        "經度": 121.6009927,
        "traWebsiteCode": "7000",
        "eng站名": "Hualien"
      }
    },
    {
      "type": "Feature",
      "geometry": {
        "type": "Point",
        "coordinates": [
          121.5853166,
          23.9667376
        ]
      },
      "properties": {
        "編號": "45",
        "時刻表編號": "1602",
        "站名": "吉安",
        "支線": "",
        "地址": "花蓮縣吉安鄉南昌街200號",
        "電話": "03-8539423",
        "緯度": 23.9667376,
        "經度": 121.5853166,
        "traWebsiteCode": "6250",
        "eng站名": "Ji'an"
      }
    },
    {
      "type": "Feature",
      "geometry": {
        "type": "Point",
        "coordinates": [
          121.5294366,
          23.9074936
        ]
      },
      "properties": {
        "編號": "43",
        "時刻表編號": "1604",
        "站名": "志學",
        "支線": "",
        "地址": "花蓮縣壽豐鄉中正路1號",
        "電話": "03-8662966",
        "緯度": 23.9074936,
        "經度": 121.5294366,
        "traWebsiteCode": "6240",
        "eng站名": "Zhixue"
      }
    },
    {
      "type": "Feature",
      "geometry": {
        "type": "Point",
        "coordinates": [
          121.520485,
          23.8827741
        ]
      },
      "properties": {
        "編號": "42",
        "時刻表編號": "1605",
        "站名": "平和",
        "支線": "",
        "地址": "花蓮縣壽豐鄉平和路1號",
        "電話": "無",
        "緯度": 23.8827741,
        "經度": 121.520485,
        "traWebsiteCode": "6230",
        "eng站名": "Pinghe"
      }
    },
    {
      "type": "Feature",
      "geometry": {
        "type": "Point",
        "coordinates": [
          121.510633,
          23.869016
        ]
      },
      "properties": {
        "編號": "41",
        "時刻表編號": "1606",
        "站名": "壽豐",
        "支線": "",
        "地址": "花蓮縣壽豐鄉壽山路1號",
        "電話": "03-8653706",
        "緯度": 23.869016,
        "經度": 121.510633,
        "traWebsiteCode": "6220",
        "eng站名": "Shoufeng"
      }
    },
    {
      "type": "Feature",
      "geometry": {
        "type": "Point",
        "coordinates": [
          121.496168,
          23.848475
        ]
      },
      "properties": {
        "編號": "40",
        "時刻表編號": "1607",
        "站名": "豐田",
        "支線": "",
        "地址": "花蓮縣壽豐鄉站前街36號",
        "電話": "03-8654251",
        "緯度": 23.848475,
        "經度": 121.496168,
        "traWebsiteCode": "6210",
        "eng站名": "Fengtian"
      }
    },
    {
      "type": "Feature",
      "geometry": {
        "type": "Point",
        "coordinates": [
          121.4582804,
          23.7822757
        ]
      },
      "properties": {
        "編號": "37",
        "時刻表編號": "1609",
        "站名": "南平",
        "支線": "",
        "地址": "花蓮縣鳳林鎮自強路233號",
        "電話": "03-8771597",
        "緯度": 23.7822757,
        "經度": 121.4582804,
        "traWebsiteCode": "6190",
        "eng站名": "Nanping"
      }
    },
    {
      "type": "Feature",
      "geometry": {
        "type": "Point",
        "coordinates": [
          121.4470243,
          23.74634
        ]
      },
      "properties": {
        "編號": "36",
        "時刻表編號": "1610",
        "站名": "鳳林",
        "支線": "",
        "地址": "花蓮縣鳳林鎮中山路43號",
        "電話": "03-8762004",
        "緯度": 23.74634,
        "經度": 121.4470243,
        "traWebsiteCode": "6180",
        "eng站名": "Fenglin"
      }
    },
    {
      "type": "Feature",
      "geometry": {
        "type": "Point",
        "coordinates": [
          121.419067,
          23.711978
        ]
      },
      "properties": {
        "編號": "35",
        "時刻表編號": "1611",
        "站名": "萬榮",
        "支線": "",
        "地址": "花蓮縣鳳林鎮長德街17號",
        "電話": "03-8752175",
        "緯度": 23.711978,
        "經度": 121.419067,
        "traWebsiteCode": "6170",
        "eng站名": "Wanrong"
      }
    },
    {
      "type": "Feature",
      "geometry": {
        "type": "Point",
        "coordinates": [
          121.4211678,
          23.666293
        ]
      },
      "properties": {
        "編號": "34",
        "時刻表編號": "1612",
        "站名": "光復",
        "支線": "",
        "地址": "花蓮縣光復鄉中正路1段2-1號",
        "電話": "03-8704143",
        "緯度": 23.666293,
        "經度": 121.4211678,
        "traWebsiteCode": "6160",
        "eng站名": "Guangfu"
      }
    },
    {
      "type": "Feature",
      "geometry": {
        "type": "Point",
        "coordinates": [
          121.3896245,
          23.605688
        ]
      },
      "properties": {
        "編號": "32",
        "時刻表編號": "1613",
        "站名": "大富",
        "支線": "",
        "地址": "花蓮縣光復鄉明德路1號",
        "電話": "無",
        "緯度": 23.605688,
        "經度": 121.3896245,
        "traWebsiteCode": "6150",
        "eng站名": "Dafu"
      }
    },
    {
      "type": "Feature",
      "geometry": {
        "type": "Point",
        "coordinates": [
          121.3801225,
          23.5802685
        ]
      },
      "properties": {
        "編號": "31",
        "時刻表編號": "1614",
        "站名": "富源",
        "支線": "",
        "地址": "花蓮縣瑞穗鄉富源路2號",
        "電話": "03-8811824",
        "緯度": 23.5802685,
        "經度": 121.3801225,
        "traWebsiteCode": "6140",
        "eng站名": "Fuyuan"
      }
    },
    {
      "type": "Feature",
      "geometry": {
        "type": "Point",
        "coordinates": [
          121.3768412,
          23.4973759
        ]
      },
      "properties": {
        "編號": "29",
        "時刻表編號": "1616",
        "站名": "瑞穗",
        "支線": "",
        "地址": "花蓮縣瑞穗鄉四維街13號",
        "電話": "03-8875039",
        "緯度": 23.4973759,
        "經度": 121.3768412,
        "traWebsiteCode": "6130",
        "eng站名": "Ruisui"
      }
    },
    {
      "type": "Feature",
      "geometry": {
        "type": "Point",
        "coordinates": [
          121.345403,
          23.424535
        ]
      },
      "properties": {
        "編號": "27",
        "時刻表編號": "1617",
        "站名": "三民",
        "支線": "",
        "地址": "花蓮縣玉里鎮三民路10號",
        "電話": "03-8841847",
        "緯度": 23.424535,
        "經度": 121.345403,
        "traWebsiteCode": "6120",
        "eng站名": "Sanmin"
      }
    },
    {
      "type": "Feature",
      "geometry": {
        "type": "Point",
        "coordinates": [
          121.311726,
          23.3315175
        ]
      },
      "properties": {
        "編號": "25",
        "時刻表編號": "1619",
        "站名": "玉里",
        "支線": "",
        "地址": "花蓮縣玉里鎮康樂街39號",
        "電話": "03-8882020",
        "緯度": 23.3315175,
        "經度": 121.311726,
        "traWebsiteCode": "6110",
        "eng站名": "Yuli"
      }
    },
    {
      "type": "Feature",
      "geometry": {
        "type": "Point",
        "coordinates": [
          121.3041814,
          23.2723086
        ]
      },
      "properties": {
        "編號": "22",
        "時刻表編號": "1621",
        "站名": "東里",
        "支線": "",
        "地址": "花蓮縣富里鄉大莊路15號之6",
        "電話": "03-8861005",
        "緯度": 23.2723086,
        "經度": 121.3041814,
        "traWebsiteCode": "6100",
        "eng站名": "Dongli"
      }
    },
    {
      "type": "Feature",
      "geometry": {
        "type": "Point",
        "coordinates": [
          121.278481,
          23.226025
        ]
      },
      "properties": {
        "編號": "20",
        "時刻表編號": "1622",
        "站名": "東竹",
        "支線": "",
        "地址": "花蓮縣富里鄉新興村26號",
        "電話": "03-8821504",
        "緯度": 23.226025,
        "經度": 121.278481,
        "traWebsiteCode": "6090",
        "eng站名": "Dongzhu"
      }
    },
    {
      "type": "Feature",
      "geometry": {
        "type": "Point",
        "coordinates": [
          121.2486917,
          23.1791319
        ]
      },
      "properties": {
        "編號": "18",
        "時刻表編號": "1623",
        "站名": "富里",
        "支線": "",
        "地址": "花蓮縣富里鄉車站街56號",
        "電話": "03-8831771",
        "緯度": 23.1791319,
        "經度": 121.2486917,
        "traWebsiteCode": "6080",
        "eng站名": "Fuli"
      }
    },
    {
      "type": "Feature",
      "geometry": {
        "type": "Point",
        "coordinates": [
          121.2193902,
          23.1261582
        ]
      },
      "properties": {
        "編號": "15",
        "時刻表編號": "1624",
        "站名": "池上",
        "支線": "",
        "地址": "臺東縣池上鄉鐵花路30號",
        "電話": "089-862097",
        "緯度": 23.1261582,
        "經度": 121.2193902,
        "traWebsiteCode": "6070",
        "eng站名": "Chishang"
      }
    },
    {
      "type": "Feature",
      "geometry": {
        "type": "Point",
        "coordinates": [
          121.1768294,
          23.1029344
        ]
      },
      "properties": {
        "編號": "14",
        "時刻表編號": "1625",
        "站名": "海端",
        "支線": "",
        "地址": "臺東縣關山鎮西莊49號",
        "電話": "無",
        "緯度": 23.1029344,
        "經度": 121.1768294,
        "traWebsiteCode": "6060",
        "eng站名": "Haiduan"
      }
    },
    {
      "type": "Feature",
      "geometry": {
        "type": "Point",
        "coordinates": [
          121.164373,
          23.0456654
        ]
      },
      "properties": {
        "編號": "12",
        "時刻表編號": "1626",
        "站名": "關山",
        "支線": "",
        "地址": "臺東縣關山鎮博愛路2號",
        "電話": "089-811033",
        "緯度": 23.0456654,
        "經度": 121.164373,
        "traWebsiteCode": "6050",
        "eng站名": "Guanshan"
      }
    },
    {
      "type": "Feature",
      "geometry": {
        "type": "Point",
        "coordinates": [
          121.15584,
          22.979985
        ]
      },
      "properties": {
        "編號": "10",
        "時刻表編號": "1628",
        "站名": "瑞和",
        "支線": "",
        "地址": "臺東縣鹿野鄉瑞和村瑞榮路1之1號",
        "電話": "無",
        "緯度": 22.979985,
        "經度": 121.15584,
        "traWebsiteCode": "6040",
        "eng站名": "Ruihe"
      }
    },
    {
      "type": "Feature",
      "geometry": {
        "type": "Point",
        "coordinates": [
          121.15807,
          22.953923
        ]
      },
      "properties": {
        "編號": "9",
        "時刻表編號": "1629",
        "站名": "瑞源",
        "支線": "",
        "地址": "臺東縣鹿野鄉瑞景路1段336巷8號之1",
        "電話": "089-580159",
        "緯度": 22.953923,
        "經度": 121.15807,
        "traWebsiteCode": "6030",
        "eng站名": "Ruiyuan"
      }
    },
    {
      "type": "Feature",
      "geometry": {
        "type": "Point",
        "coordinates": [
          121.1370039,
          22.9124694
        ]
      },
      "properties": {
        "編號": "8",
        "時刻表編號": "1630",
        "站名": "鹿野",
        "支線": "",
        "地址": "臺東縣鹿野鄉中正路38號",
        "電話": "089-550217",
        "緯度": 22.9124694,
        "經度": 121.1370039,
        "traWebsiteCode": "6020",
        "eng站名": "Luye"
      }
    },
    {
      "type": "Feature",
      "geometry": {
        "type": "Point",
        "coordinates": [
          121.138031,
          22.862046
        ]
      },
      "properties": {
        "編號": "6",
        "時刻表編號": "1631",
        "站名": "山里",
        "支線": "",
        "地址": "臺東縣卑南鄉山里路108號",
        "電話": "089-572370",
        "緯度": 22.862046,
        "經度": 121.138031,
        "traWebsiteCode": "6010",
        "eng站名": "Shanli"
      }
    },
    {
      "type": "Feature",
      "geometry": {
        "type": "Point",
        "coordinates": [
          121.1234431,
          22.7946607
        ]
      },
      "properties": {
        "編號": "4",
        "時刻表編號": "1632",
        "站名": "臺東",
        "支線": "",
        "地址": "臺東縣臺東市岩灣路101巷598號",
        "電話": "089-229687",
        "緯度": 22.7946607,
        "經度": 121.1234431,
        "traWebsiteCode": "6000",
        "eng站名": "Taitung"
      }
    },
    {
      "type": "Feature",
      "geometry": {
        "type": "Point",
        "coordinates": [
          120.502952,
          22.652189
        ]
      },
      "properties": {
        "編號": "191",
        "時刻表編號": "1407",
        "站名": "歸來",
        "支線": "",
        "地址": "屏東縣屏東市歸來里歸仁路5-4號",
        "電話": "無",
        "緯度": 22.652189,
        "經度": 120.502952,
        "traWebsiteCode": "5010",
        "eng站名": "Guilai"
      }
    },
    {
      "type": "Feature",
      "geometry": {
        "type": "Point",
        "coordinates": [
          120.514368,
          22.634819
        ]
      },
      "properties": {
        "編號": "192",
        "時刻表編號": "1408",
        "站名": "麟洛",
        "支線": "",
        "地址": "屏東縣麟洛鄉田道村緀仔一路",
        "電話": "無",
        "緯度": 22.634819,
        "經度": 120.514368,
        "traWebsiteCode": "5020",
        "eng站名": "Linluo"
      }
    },
    {
      "type": "Feature",
      "geometry": {
        "type": "Point",
        "coordinates": [
          120.5266971,
          22.616433
        ]
      },
      "properties": {
        "編號": "193",
        "時刻表編號": "1409",
        "站名": "西勢",
        "支線": "",
        "地址": "屏東縣竹田鄉西勢村西豐路2號",
        "電話": "08-7784521",
        "緯度": 22.616433,
        "經度": 120.5266971,
        "traWebsiteCode": "5030",
        "eng站名": "Xishi"
      }
    },
    {
      "type": "Feature",
      "geometry": {
        "type": "Point",
        "coordinates": [
          120.5418585,
          22.5864608
        ]
      },
      "properties": {
        "編號": "194",
        "時刻表編號": "1410",
        "站名": "竹田",
        "支線": "",
        "地址": "屏東縣竹田鄉履豐村豐明路27-1號",
        "電話": "08-7711002",
        "緯度": 22.5864608,
        "經度": 120.5418585,
        "traWebsiteCode": "5040",
        "eng站名": "Zhutian"
      }
    },
    {
      "type": "Feature",
      "geometry": {
        "type": "Point",
        "coordinates": [
          120.53642,
          22.550086
        ]
      },
      "properties": {
        "編號": "195",
        "時刻表編號": "1411",
        "站名": "潮州",
        "支線": "",
        "地址": "屏東縣潮州鎮信義路111號",
        "電話": "08-7882739",
        "緯度": 22.550086,
        "經度": 120.53642,
        "traWebsiteCode": "5050",
        "eng站名": "Chaozhou"
      }
    },
    {
      "type": "Feature",
      "geometry": {
        "type": "Point",
        "coordinates": [
          120.511117,
          22.512921
        ]
      },
      "properties": {
        "編號": "196",
        "時刻表編號": "1412",
        "站名": "崁頂",
        "支線": "",
        "地址": "屏東縣崁頂鄉崁頂村中正路122號",
        "電話": "無",
        "緯度": 22.512921,
        "經度": 120.511117,
        "traWebsiteCode": "5060",
        "eng站名": "Kanding"
      }
    },
    {
      "type": "Feature",
      "geometry": {
        "type": "Point",
        "coordinates": [
          120.5117382,
          22.4920584
        ]
      },
      "properties": {
        "編號": "197",
        "時刻表編號": "1413",
        "站名": "南州",
        "支線": "",
        "地址": "屏東縣南州鄉仁里村仁里路86號",
        "電話": "08-8642942",
        "緯度": 22.4920584,
        "經度": 120.5117382,
        "traWebsiteCode": "5070",
        "eng站名": "Nanzhou"
      }
    },
    {
      "type": "Feature",
      "geometry": {
        "type": "Point",
        "coordinates": [
          120.511321,
          22.457927
        ]
      },
      "properties": {
        "編號": "198",
        "時刻表編號": "1414",
        "站名": "鎮安",
        "支線": "",
        "地址": "屏東縣林邊鄉鎮安村永和路4號",
        "電話": "無",
        "緯度": 22.457927,
        "經度": 120.511321,
        "traWebsiteCode": "5080",
        "eng站名": "Zhen'an"
      }
    },
    {
      "type": "Feature",
      "geometry": {
        "type": "Point",
        "coordinates": [
          120.5153762,
          22.4314061
        ]
      },
      "properties": {
        "編號": "199",
        "時刻表編號": "1415",
        "站名": "林邊",
        "支線": "",
        "地址": "屏東縣林邊鄉仁和村仁愛路33號",
        "電話": "08-8751475",
        "緯度": 22.4314061,
        "經度": 120.5153762,
        "traWebsiteCode": "5090",
        "eng站名": "Linbian"
      }
    },
    {
      "type": "Feature",
      "geometry": {
        "type": "Point",
        "coordinates": [
          120.5477418,
          22.4140869
        ]
      },
      "properties": {
        "編號": "200",
        "時刻表編號": "1416",
        "站名": "佳冬",
        "支線": "",
        "地址": "屏東縣佳冬鄉六根村復興路21號",
        "電話": "08-8662939",
        "緯度": 22.4140869,
        "經度": 120.5477418,
        "traWebsiteCode": "5100",
        "eng站名": "Jiadong"
      }
    },
    {
      "type": "Feature",
      "geometry": {
        "type": "Point",
        "coordinates": [
          120.572356,
          22.398968
        ]
      },
      "properties": {
        "編號": "201",
        "時刻表編號": "1417",
        "站名": "東海",
        "支線": "",
        "地址": "屏東縣枋寮鄉東海村西安路92號",
        "電話": "無",
        "緯度": 22.398968,
        "經度": 120.572356,
        "traWebsiteCode": "5110",
        "eng站名": "Donghai"
      }
    },
    {
      "type": "Feature",
      "geometry": {
        "type": "Point",
        "coordinates": [
          120.5950975,
          22.3680186
        ]
      },
      "properties": {
        "編號": "203",
        "時刻表編號": "1418",
        "站名": "枋寮",
        "支線": "",
        "地址": "屏東縣枋寮鄉枋寮村儲運路18號",
        "電話": "08-8782041",
        "緯度": 22.3680186,
        "經度": 120.5950975,
        "traWebsiteCode": "5120",
        "eng站名": "Fangliao"
      }
    },
    {
      "type": "Feature",
      "geometry": {
        "type": "Point",
        "coordinates": [
          120.624621,
          22.330971
        ]
      },
      "properties": {
        "編號": "204",
        "時刻表編號": "1502",
        "站名": "加祿",
        "支線": "",
        "地址": "屏東縣枋山鄉加祿村會社路53號",
        "電話": "08-8720791",
        "緯度": 22.330971,
        "經度": 120.624621,
        "traWebsiteCode": "5130",
        "eng站名": "Jialu"
      }
    },
    {
      "type": "Feature",
      "geometry": {
        "type": "Point",
        "coordinates": [
          120.643774,
          22.297838
        ]
      },
      "properties": {
        "編號": "205",
        "時刻表編號": "1503",
        "站名": "內獅",
        "支線": "",
        "地址": "屏東縣枋山鄉加祿村南和路43號",
        "電話": "08-8720791",
        "緯度": 22.297838,
        "經度": 120.643774,
        "traWebsiteCode": "5140",
        "eng站名": "Neishi"
      }
    },
    {
      "type": "Feature",
      "geometry": {
        "type": "Point",
        "coordinates": [
          120.659647,
          22.267067
        ]
      },
      "properties": {
        "編號": "206",
        "時刻表編號": "1504",
        "站名": "枋山",
        "支線": "",
        "地址": "屏東縣獅子鄉內獅村內獅巷84號",
        "電話": "08-8720791",
        "緯度": 22.267067,
        "經度": 120.659647,
        "traWebsiteCode": "5160",
        "eng站名": "Fangshan"
      }
    },
    {
      "type": "Feature",
      "geometry": {
        "type": "Point",
        "coordinates": [
          120.9008,
          22.365217
        ]
      },
      "properties": {
        "編號": "211",
        "時刻表編號": "1508",
        "站名": "大武",
        "支線": "",
        "地址": "臺東縣大武鄉大鳥村和平部落33號",
        "電話": "089-792056",
        "緯度": 22.365217,
        "經度": 120.9008,
        "traWebsiteCode": "5190",
        "eng站名": "Dawu"
      }
    },
    {
      "type": "Feature",
      "geometry": {
        "type": "Point",
        "coordinates": [
          120.938037,
          22.463806
        ]
      },
      "properties": {
        "編號": "213",
        "時刻表編號": "1510",
        "站名": "瀧溪",
        "支線": "",
        "地址": "臺東縣太麻里鄉多良村大溪14鄰37之1號",
        "電話": "089-761482",
        "緯度": 22.463806,
        "經度": 120.938037,
        "traWebsiteCode": "5200",
        "eng站名": "Longxi"
      }
    },
    {
      "type": "Feature",
      "geometry": {
        "type": "Point",
        "coordinates": [
          120.9672394,
          22.531488
        ]
      },
      "properties": {
        "編號": "215",
        "時刻表編號": "1512",
        "站名": "金崙",
        "支線": "",
        "地址": "臺東縣太麻里鄉金崙村47-17號",
        "電話": "089-771068",
        "緯度": 22.531488,
        "經度": 120.9672394,
        "traWebsiteCode": "5210",
        "eng站名": "Jinlun"
      }
    },
    {
      "type": "Feature",
      "geometry": {
        "type": "Point",
        "coordinates": [
          121.005007,
          22.618823
        ]
      },
      "properties": {
        "編號": "217",
        "時刻表編號": "1514",
        "站名": "太麻里",
        "支線": "",
        "地址": "臺東縣太麻里鄉大王村276-13號",
        "電話": "089-781544",
        "緯度": 22.618823,
        "經度": 121.005007,
        "traWebsiteCode": "5220",
        "eng站名": "Taimali"
      }
    },
    {
      "type": "Feature",
      "geometry": {
        "type": "Point",
        "coordinates": [
          121.0587551,
          22.7314629
        ]
      },
      "properties": {
        "編號": "219",
        "時刻表編號": "1516",
        "站名": "知本",
        "支線": "",
        "地址": "臺東縣臺東市知本路二段900巷85號",
        "電話": "089-514482",
        "緯度": 22.7314629,
        "經度": 121.0587551,
        "traWebsiteCode": "5230",
        "eng站名": "Zhiben"
      }
    },
    {
      "type": "Feature",
      "geometry": {
        "type": "Point",
        "coordinates": [
          121.0941177,
          22.7636935
        ]
      },
      "properties": {
        "編號": "220",
        "時刻表編號": "1517",
        "站名": "康樂",
        "支線": "",
        "地址": "臺東縣臺東市博物館路51巷131號",
        "電話": "089-383107",
        "緯度": 22.7636935,
        "經度": 121.0941177,
        "traWebsiteCode": "5240",
        "eng站名": "Kangle"
      }
    },
    {
      "type": "Feature",
      "geometry": {
        "type": "Point",
        "coordinates": [
          121.8028572,
          25.135311
        ]
      },
      "properties": {
        "編號": "292",
        "時刻表編號": "2003",
        "站名": "八斗子",
        "支線": "深澳線",
        "地址": "",
        "電話": "",
        "緯度": 25.135311,
        "經度": 121.8028572,
        "traWebsiteCode": "7362",
        "eng站名": "Badouzi"
      }
    },
    {
      "type": "Feature",
      "geometry": {
        "type": "Point",
        "coordinates": [
          121.799062,
          25.13838
        ]
      },
      "properties": {
        "編號": "291",
        "時刻表編號": "6103",
        "站名": "海科館",
        "支線": "深澳線",
        "地址": "基隆市中正區八斗子",
        "電話": "無",
        "緯度": 25.13838,
        "經度": 121.799062,
        "traWebsiteCode": "7361",
        "eng站名": "Haikeguan"
      }
    },
    {
      "type": "Feature",
      "geometry": {
        "type": "Point",
        "coordinates": [
          121.797847,
          25.049964
        ]
      },
      "properties": {
        "編號": "231",
        "時刻表編號": "1903",
        "站名": "大華",
        "支線": "平溪線",
        "地址": "新北市平溪區六分路12-1號",
        "電話": "無",
        "緯度": 25.049964,
        "經度": 121.797847,
        "traWebsiteCode": "7331",
        "eng站名": "Dahua"
      }
    },
    {
      "type": "Feature",
      "geometry": {
        "type": "Point",
        "coordinates": [
          121.7767203,
          25.0430998
        ]
      },
      "properties": {
        "編號": "232",
        "時刻表編號": "1904",
        "站名": "十分",
        "支線": "平溪線",
        "地址": "新北市平溪區十分街51號",
        "電話": "02-24958307",
        "緯度": 25.0430998,
        "經度": 121.7767203,
        "traWebsiteCode": "7332",
        "eng站名": "Shifen"
      }
    },
    {
      "type": "Feature",
      "geometry": {
        "type": "Point",
        "coordinates": [
          121.7537404,
          25.0345984
        ]
      },
      "properties": {
        "編號": "233",
        "時刻表編號": "1905",
        "站名": "望古",
        "支線": "平溪線",
        "地址": "新北市平溪區(無站房)",
        "電話": "無",
        "緯度": 25.0345984,
        "經度": 121.7537404,
        "traWebsiteCode": "7333",
        "eng站名": "Wanggu"
      }
    },
    {
      "type": "Feature",
      "geometry": {
        "type": "Point",
        "coordinates": [
          121.74804,
          25.030052
        ]
      },
      "properties": {
        "編號": "234",
        "時刻表編號": "1906",
        "站名": "嶺腳",
        "支線": "平溪線",
        "地址": "新北市平溪區嶺腳街22號",
        "電話": "無",
        "緯度": 25.030052,
        "經度": 121.74804,
        "traWebsiteCode": "7334",
        "eng站名": "Lingjiao"
      }
    },
    {
      "type": "Feature",
      "geometry": {
        "type": "Point",
        "coordinates": [
          121.7410565,
          25.025789
        ]
      },
      "properties": {
        "編號": "235",
        "時刻表編號": "1907",
        "站名": "平溪",
        "支線": "平溪線",
        "地址": "新北市平溪區中華街12號",
        "電話": "無",
        "緯度": 25.025789,
        "經度": 121.7410565,
        "traWebsiteCode": "7335",
        "eng站名": "Pingxi"
      }
    },
    {
      "type": "Feature",
      "geometry": {
        "type": "Point",
        "coordinates": [
          121.7284449,
          25.0246184
        ]
      },
      "properties": {
        "編號": "236",
        "時刻表編號": "1908",
        "站名": "菁桐",
        "支線": "平溪線",
        "地址": "新北市平溪區菁桐街52號",
        "電話": "無",
        "緯度": 25.0246184,
        "經度": 121.7284449,
        "traWebsiteCode": "7336",
        "eng站名": "Jingtong"
      }
    },
    {
      "type": "Feature",
      "geometry": {
        "type": "Point",
        "coordinates": [
          121.0033786,
          24.8066257
        ]
      },
      "properties": {
        "編號": "238",
        "時刻表編號": "2212",
        "站名": "千甲",
        "支線": "內灣線",
        "地址": "新竹市水源里千甲路142號",
        "電話": "無",
        "緯度": 24.8066257,
        "經度": 121.0033786,
        "traWebsiteCode": "1191",
        "eng站名": "Qianjia"
      }
    },
    {
      "type": "Feature",
      "geometry": {
        "type": "Point",
        "coordinates": [
          121.0219477,
          24.7880283
        ]
      },
      "properties": {
        "編號": "239",
        "時刻表編號": "2213",
        "站名": "新莊",
        "支線": "內灣線",
        "地址": "新竹市新莊里關東路310號",
        "電話": "無",
        "緯度": 24.7880283,
        "經度": 121.0219477,
        "traWebsiteCode": "1192",
        "eng站名": "Xinzhuang"
      }
    },
    {
      "type": "Feature",
      "geometry": {
        "type": "Point",
        "coordinates": [
          121.030687,
          24.7814701
        ]
      },
      "properties": {
        "編號": "241",
        "時刻表編號": "2203",
        "站名": "竹中",
        "支線": "內灣線",
        "地址": "新竹縣竹東鎮頭重里竹中路145號",
        "電話": "無",
        "緯度": 24.7814701,
        "經度": 121.030687,
        "traWebsiteCode": "1193",
        "eng站名": "Zhuzhong"
      }
    },
    {
      "type": "Feature",
      "geometry": {
        "type": "Point",
        "coordinates": [
          121.055699,
          24.777831
        ]
      },
      "properties": {
        "編號": "242",
        "時刻表編號": "2204",
        "站名": "上員",
        "支線": "內灣線",
        "地址": "新竹縣竹東鎮上員里(無站房)",
        "電話": "無",
        "緯度": 24.777831,
        "經度": 121.055699,
        "traWebsiteCode": "1201",
        "eng站名": "Shangyuan"
      }
    },
    {
      "type": "Feature",
      "geometry": {
        "type": "Point",
        "coordinates": [
          121.08331,
          24.748359
        ]
      },
      "properties": {
        "編號": "249",
        "時刻表編號": "2211",
        "站名": "榮華",
        "支線": "內灣線",
        "地址": "新竹縣竹東鎮仁愛里(無站房)",
        "電話": "無",
        "緯度": 24.748359,
        "經度": 121.08331,
        "traWebsiteCode": "1202",
        "eng站名": "Ronghua"
      }
    },
    {
      "type": "Feature",
      "geometry": {
        "type": "Point",
        "coordinates": [
          121.0943482,
          24.7378224
        ]
      },
      "properties": {
        "編號": "243",
        "時刻表編號": "2205",
        "站名": "竹東",
        "支線": "內灣線",
        "地址": "新竹縣竹東鎮雞林里東林路196號",
        "電話": "03-5962042",
        "緯度": 24.7378224,
        "經度": 121.0943482,
        "traWebsiteCode": "1203",
        "eng站名": "Zhudong"
      }
    },
    {
      "type": "Feature",
      "geometry": {
        "type": "Point",
        "coordinates": [
          121.1165462,
          24.7205632
        ]
      },
      "properties": {
        "編號": "244",
        "時刻表編號": "2206",
        "站名": "橫山",
        "支線": "內灣線",
        "地址": "新竹縣橫山鄉橫山村橫山路97號(無站房)",
        "電話": "無",
        "緯度": 24.7205632,
        "經度": 121.1165462,
        "traWebsiteCode": "1204",
        "eng站名": "Hengshan"
      }
    },
    {
      "type": "Feature",
      "geometry": {
        "type": "Point",
        "coordinates": [
          121.1362146,
          24.7206375
        ]
      },
      "properties": {
        "編號": "245",
        "時刻表編號": "2207",
        "站名": "九讚頭",
        "支線": "內灣線",
        "地址": "新竹縣橫山鄉中豐路2段286巷29號",
        "電話": "03-5962042",
        "緯度": 24.7206375,
        "經度": 121.1362146,
        "traWebsiteCode": "1205",
        "eng站名": "Jiuzantou"
      }
    },
    {
      "type": "Feature",
      "geometry": {
        "type": "Point",
        "coordinates": [
          121.1543901,
          24.7167094
        ]
      },
      "properties": {
        "編號": "246",
        "時刻表編號": "2208",
        "站名": "合興",
        "支線": "內灣線",
        "地址": "新竹縣橫山鄉中山街1段17號",
        "電話": "無",
        "緯度": 24.7167094,
        "經度": 121.1543901,
        "traWebsiteCode": "1206",
        "eng站名": "Hexing"
      }
    },
    {
      "type": "Feature",
      "geometry": {
        "type": "Point",
        "coordinates": [
          121.167371,
          24.715543
        ]
      },
      "properties": {
        "編號": "247",
        "時刻表編號": "2209",
        "站名": "富貴",
        "支線": "內灣線",
        "地址": "新竹縣橫山鄉(無站房)",
        "電話": "無",
        "緯度": 24.715543,
        "經度": 121.167371,
        "traWebsiteCode": "1207",
        "eng站名": "Fugui"
      }
    },
    {
      "type": "Feature",
      "geometry": {
        "type": "Point",
        "coordinates": [
          121.1825562,
          24.7053022
        ]
      },
      "properties": {
        "編號": "248",
        "時刻表編號": "2210",
        "站名": "內灣",
        "支線": "內灣線",
        "地址": "新竹縣橫山鄉中正路6號",
        "電話": "無",
        "緯度": 24.7053022,
        "經度": 121.1825562,
        "traWebsiteCode": "1208",
        "eng站名": "Neiwan"
      }
    },
    {
      "type": "Feature",
      "geometry": {
        "type": "Point",
        "coordinates": [
          121.0393001,
          24.807528
        ]
      },
      "properties": {
        "編號": "240",
        "時刻表編號": "2214",
        "站名": "六家",
        "支線": "六家線",
        "地址": "新竹縣竹北市復興三路2段229號",
        "電話": "無",
        "緯度": 24.807528,
        "經度": 121.0393001,
        "traWebsiteCode": "1194",
        "eng站名": "Liujia"
      }
    },
    {
      "type": "Feature",
      "geometry": {
        "type": "Point",
        "coordinates": [
          120.639857,
          23.797054
        ]
      },
      "properties": {
        "編號": "251",
        "時刻表編號": "2702",
        "站名": "源泉",
        "支線": "集集線",
        "地址": "彰化縣二水鄉合興村英義路(無站房)",
        "電話": "無",
        "緯度": 23.797054,
        "經度": 120.639857,
        "traWebsiteCode": "3431",
        "eng站名": "Yuanquan"
      }
    },
    {
      "type": "Feature",
      "geometry": {
        "type": "Point",
        "coordinates": [
          120.7043512,
          23.8362337
        ]
      },
      "properties": {
        "編號": "252",
        "時刻表編號": "2703",
        "站名": "濁水",
        "支線": "集集線",
        "地址": "南投縣名間鄉濁水村車站路53號",
        "電話": "無",
        "緯度": 23.8362337,
        "經度": 120.7043512,
        "traWebsiteCode": "3432",
        "eng站名": "Zhuoshui"
      }
    },
    {
      "type": "Feature",
      "geometry": {
        "type": "Point",
        "coordinates": [
          120.737912,
          23.833556
        ]
      },